     2.11           OBSERVATION DATA    G (GPS)             RINEX VERSION / TYPE
clockShift          gpsops              20161027 000656 UTC PGM / RUN BY / DATE
teqc  2016Apr1      gpsops              20161027 00:06:55UTCCOMMENT
Linux 2.4.21-27.ELsmp|Opteron|gcc -static|Linux x86_64|=+   COMMENT
BIT 2 OF LLI FLAGS DATA COLLECTED UNDER A/S CONDITION       COMMENT
USN7                                                        MARKER NAME
40451S009                                                   MARKER NUMBER
GGN                 USNO                                    OBSERVER / AGENCY
RT920012203         ASHTECH Z-XII3T     IL01-1D04-MCF-12MX  REC # / TYPE / VERS
762-11615           TPSCR.G5        TPSH                    ANT # / TYPE
  1112162.1360 -4842854.6620  3985497.0649                  APPROX POSITION XYZ
        0.0000        0.0000        0.0000                  ANTENNA: DELTA H/E/N
     1     1                                                WAVELENGTH FACT L1/2
     7    L1    L2    P1    P2    C1    S1    S2            # / TYPES OF OBSERV
    30.0000                                                 INTERVAL
                                                            COMMENT
This data is provided as a public service by NASA/JPL.      COMMENT
No warranty is expressed or implied regarding suitability   COMMENT
for use.  For further information, contact:                 COMMENT
Dave Stowers, NASA/JPL m/s 238-600                          COMMENT
4800 Oak Grove Drive, Pasadena CA 91109 USA                 COMMENT
                                                            COMMENT
Forced Modulo Decimation to 30 seconds                      COMMENT
 SNR is mapped to RINEX snr flag value [0-9]                COMMENT
  L1 & L2: min(max(int(snr_dBHz/6), 0), 9)                  COMMENT
pseudorange smoothing corrections not applied               COMMENT
clockShift applied 470.29 L1, 481.68 L2 (ns)                COMMENT
  2016    10    26     0     0    0.0000000     GPS         TIME OF FIRST OBS
                                                            END OF HEADER
 16 10 26  0  0  0.0000000  0  8G24G31G32G25G14G10G18G12
  -7099319.27246  -5264138.10246  23590331.1094   23590330.0834   23590329.779
        40.4004         37.8004
 -12004392.31147  -9325733.00446  22704205.4044   22704205.7754   22704204.640
        43.6004         40.6004
 -23615747.28348 -18386076.32347  20796618.3544   20796618.1444   20796617.643
        50.5004         47.3004
 -11063121.00547  -8610612.61346  22710041.4324   22710042.6754   22710041.691
        43.4004         40.6004
 -16249043.53847 -12651000.89146  22233089.8934   22233087.8664   22233090.248
        44.8004         41.8004
 -25577416.99348 -19910181.74148  20229448.2744   20229448.4654   20229448.592
        51.0004         48.0004
 -19685452.35247 -14605597.42347  21283979.0024   21283977.1884   21283980.000
        46.5004         43.3004
 -14845511.59247 -11137697.15746  22449784.7894   22449782.9134   22449783.608
        44.2004         41.4004
 16 10 26  0  0 30.0000000  0  8G24G31G32G25G14G10G18G12
  -6998723.36346  -5185751.69346  23609473.3814   23609472.6194   23609472.163
        40.3004         37.6004
 -12102547.61947  -9402217.63846  22685529.5664   22685526.9114   22685529.620
        43.7004         41.1004
 -23639943.07748 -18404930.16447  20792013.9424   20792014.0094   20792013.807
        50.5004         47.5004
 -11144847.48147  -8674295.54846  22694489.1474   22694489.9344   22694488.718
        43.4004         40.4004
 -16303890.68747 -12693738.87846  22222653.3314   22222651.9124   22222653.753
        44.8004         41.9004
 -25565139.39348 -19900614.77047  20231784.5914   20231784.8434   20231784.377
        51.0004         47.8004
 -19623165.43347 -14557062.17347  21295831.3534   21295829.9384   21295831.664
        46.5004         43.3004
 -14869685.60847 -11156534.03246  22445184.5554   22445182.8484   22445185.341
        44.2004         41.2004
 16 10 26  0  1  0.0000000  0  8G24G31G32G25G14G10G18G12
  -6897999.74946  -5107265.74346  23628641.5854   23628638.9244   23628639.603
        40.1004         37.6004
 -12200418.16147  -9478480.30546  22666904.4554   22666902.7864   22666904.960
        44.1004         41.2004
 -23663911.11648 -18423606.54347  20787453.0654   20787453.1454   20787452.964
        50.5004         47.5004
 -11226236.44447  -8737715.47546  22679000.5834   22679002.5314   22679000.616
        43.4004         40.4004
 -16358595.92547 -12736366.27746  22212242.7874   22212241.6824   22212243.096
        44.9004         41.9004
 -25552354.66448 -19890652.64648  20234217.2654   20234217.7114   20234217.047
        50.8004         48.0004
 -19560488.46747 -14508223.01147  21307758.5694   21307756.8944   21307759.346
        46.5004         43.3004
 -14893272.92847 -11174913.74146  22440696.0494   22440694.2184   22440695.527
        44.2004         41.1004
 16 10 26  0  1 30.0000000  0  9G24G31G32G01G25G14G10G18G12
  -6797151.04546  -5028682.31546  23647831.8954   23647831.3954   23647831.076
        40.1004         37.6004
 -12298002.34347  -9554519.86946  22648334.8584   22648332.9164   22648334.202
        44.4004         41.2004
 -23687651.27248 -18442105.34647  20782935.0684   20782935.7554   20782934.601
        50.5004         47.3004
   -215238.06845   -151004.44745          .000    24815880.3804   24815880.451
        34.7004         35.7004
 -11307284.62947  -8800869.85246  22663577.2084   22663579.0614   22663577.633
        43.2004         40.4004
 -16413159.68647 -12778883.43446  22201859.6104   22201858.2164   22201860.577
        44.9004         41.9004
 -25539062.25848 -19880294.92847  20236747.0664   20236747.3374   20236747.017
        51.0004         47.8004
 -19497422.47947 -14459080.70047  21319760.0694   21319757.3744   21319761.009
        46.3004         43.2004
 -14916272.04147 -11192835.09946  22436319.6184   22436316.9224   22436319.635
        44.1004         41.2004
 16 10 26  0  2  0.0000000  0  9G24G31G32G01G25G14G10G18G12
  -6696179.41446  -4950003.13346  23667045.8094   23667045.1774   23667046.974
        40.3004         37.8004
 -12395298.44247  -9630334.96246  22629820.0324   22629818.6914   22629820.440
        44.2004         41.2004
 -23711163.40948 -18460426.47447  20778460.9824   20778461.3334   20778460.572
        50.5004         47.5004
   -281547.78746   -202674.36246  24803261.1594   24803263.2954   24803258.505
        37.5004         36.0004
 -11387988.74647  -8863756.16146  22648219.6544   22648221.3094   22648221.362
        43.2004         40.4004
 -16467581.38647 -12821289.90146  22191503.3694   22191501.6274   22191504.037
        44.9004         41.8004
 -25525261.65248 -19869541.20548  20239373.2194   20239373.2604   20239372.954
        51.0004         48.0004
 -19433968.30147 -14409635.88447  21331834.6254   21331832.5824   21331835.319
        46.3004         43.2004
 -14938681.66447 -11210297.11946  22432055.5484   22432052.3044   22432053.853
        44.1004         41.1004
 16 10 26  0  2 30.0000000  0  9G24G31G32G01G25G14G10G18G12
  -6595086.69746  -4871229.57546  23686283.7874   23686282.0234   23686282.894
        40.3004         37.8004
 -12492304.47247  -9705924.00846  22611359.5364   22611358.8094   22611359.429
        44.2004         41.4004
 -23734447.39948 -18478569.83247  20774030.3054   20774030.5284   20774030.436
        50.5004         47.5004
   -347423.29746   -254005.92945  24790725.3084   24790726.5194   24790726.080
        37.8004         35.7004
 -11468345.65047  -8926371.89446  22632929.2954   22632930.7344   22632929.108
        43.6004         40.9004
 -16521861.44547 -12863585.99946  22181173.8804   22181172.6464   22181174.613
        44.8004         41.8004
 -25510952.35448 -19858391.10048  20242096.3224   20242096.2134   20242096.795
        51.0004         48.0004
 -19370126.43347 -14359888.99947  21343983.3094   21343981.2454   21343984.102
        46.2004         43.2004
 -14960500.33747 -11227298.64246  22427903.1814   22427901.4384   22427903.311
        44.1004         41.4004
 16 10 26  0  3  0.0000000  0  9G24G31G32G01G25G14G10G18G12
  -6493875.50046  -4792363.68646  23705543.5654   23705542.4474   23705542.451
        40.1004         37.4004
 -12589018.65047  -9781285.63946  22592955.8444   22592954.8554   22592956.522
        44.6004         41.8004
 -23757503.09348 -18496535.29147  20769642.9534   20769643.3474   20769643.058
        50.5004         47.5004
   -412862.48846   -304997.47345  24778273.9634   24778274.5504   24778273.269
        37.8004         35.7004
 -11548352.06747  -8988714.52646  22617703.7184   22617706.1294   22617704.345
        43.7004         40.9004
 -16575999.64747 -12905771.55147  22170871.7054   22170870.7964   22170872.439
        44.9004         42.1004
 -25496133.89148 -19846844.25448  20244916.1174   20244916.1354   20244915.764
        51.0004         48.0004
 -19305898.04347 -14309840.91747  21356205.5914   21356204.4594   21356206.611
        46.2004         43.3004
 -14981726.50947 -11243838.50146  22423864.6434   22423862.4834   22423864.752
        44.2004         41.2004
 16 10 26  0  3 30.0000000  0  9G24G31G32G01G25G14G10G18G12
  -6392547.97046  -4713407.19746  23724823.8584   23724825.2864   23724822.958
        39.7004         37.1004
 -12685439.41547  -9856418.61446  22574608.1964   22574606.4024   22574608.117
        44.8004         41.8004
 -23780330.40648 -18514322.79147  20765298.8094   20765299.1834   20765298.487
        50.5004         47.3004
   -477863.40746   -355647.50645  24765904.5044   24765904.5814   24765903.237
        38.0004         35.7004
 -11628004.75647  -9050781.53146  22602547.5624   22602548.5964   22602546.707
        43.9004         41.1004
 -16629996.06147 -12947846.62447  22160596.7654   22160595.3374   22160597.034
        45.1004         42.3004
 -25480805.82448 -19834900.29948  20247832.9464   20247832.9214   20247832.754
        51.0004         48.0004
 -19241283.89447 -14259492.25847  21368500.8224   21368499.9694   21368501.555
        46.2004         43.2004
 -15002358.52447 -11259915.36346  22419937.2174   22419936.4894   22419938.150
        44.2004         41.4004
 16 10 26  0  4  0.0000000  0  9G24G31G32G01G25G14G10G18G12
  -6291106.43946  -4634361.83846  23744127.3494   23744127.4924   23744128.473
        39.7004         37.3004
 -12781564.74647  -9931321.40246  22556315.1214   22556314.0094   22556314.201
        44.4004         41.2004
 -23802929.16948 -18531932.20347  20760998.5724   20760998.8444   20760997.984
        50.5004         47.5004
   -542423.99246   -405954.42346  24753618.9484   24753619.4674   24753618.257
        38.3004         36.0004
 -11707300.56747  -9112570.42146  22587456.7054   22587459.1394   22587456.758
        43.9004         40.9004
 -16683850.60847 -12989811.16847  22150348.8304   22150346.7484   22150349.057
        45.1004         42.1004
 -25464967.70048 -19822558.90748  20250846.6764   20250846.9854   20250847.133
        51.0004         48.0004
 -19176285.03247 -14208843.82547  21380869.7414   21380868.7234   21380871.036
        46.2004         43.2004
 -15022395.25947 -11275528.38546  22416124.6974   22416123.1344   22416125.205
        44.2004         41.4004
 16 10 26  0  4 30.0000000  0  9G24G31G32G01G25G14G10G18G12
  -6189552.81446  -4555229.14946  23763452.0664   23763452.2074   23763452.991
        39.7004         37.1004
 -12877392.77347 -10005992.53646  22538079.8424   22538077.9254   22538081.742
        44.6004         41.8004
 -23825299.24948 -18549363.42547  20756741.7694   20756742.0174   20756741.905
        50.5004         47.3004
   -606542.20646   -455916.65245  24741417.8844   24741417.8314   24741417.021
        38.0004         35.7004
 -11786236.24247  -9174078.70346  22572436.9844   22572438.6154   22572435.859
        43.9004         41.2004
 -16737563.32647 -13031665.17847  22140127.7814   22140125.8244   22140127.014
        45.1004         42.1004
 -25448619.08848 -19809819.73148  20253957.7554   20253957.9514   20253957.949
        51.0004         48.0004
 -19110902.42047 -14157896.35547  21393311.8064   21393309.5714   21393312.375
        46.0004         42.8004
 -15041835.80247 -11290676.84446  22412425.8294   22412423.3374   22412425.333
        44.2004         41.4004
 16 10 26  0  5  0.0000000  0  9G24G31G32G01G25G14G10G18G12
  -6087889.60546  -4476011.06446  23782798.7964   23782798.8114   23782799.698
        39.6004         37.1004
 -12972921.85847 -10080430.73146  22519901.8684   22519899.3594   22519900.785
        44.6004         41.8004
 -23847440.49148 -18566616.33047  20752528.7264   20752528.2744   20752528.360
        50.5004         47.3004
   -670216.08146   -505532.64245  24729299.8194   24729301.1654   24729299.506
        37.5004         35.2004
 -11864808.58247  -9235303.86846  22557485.6424   22557486.1104   22557485.707
        44.1004         41.2004
 -16791134.17247 -13073408.65647  22129933.4574   22129931.5074   22129934.324
        45.1004         42.1004
 -25431759.60148 -19796682.46447  20257165.5184   20257166.4274   20257165.645
        50.8004         47.8004
 -19045136.50147 -14106650.21447  21405826.1434   21405824.5834   21405827.307
        45.8004         42.6004
 -15060677.89147 -11305358.95346  22408839.0614   22408837.8514   22408839.603
        44.4004         41.4004
 16 10 26  0  5 30.0000000  0  9G24G31G32G01G25G14G10G18G12
  -5986119.15246  -4396709.42046  23802164.7524   23802163.8274   23802164.387
        39.4004         36.9004
 -13068150.24547 -10154634.61146  22501779.9864   22501778.2534   22501780.279
        44.8004         41.9004
 -23869352.75648 -18583690.80447  20748358.6324   20748358.3684   20748358.810
        50.5004         47.3004
   -733443.64946   -554800.86645  24717267.8964   24717269.3404   24717268.717
        37.3004         35.2004
 -11943014.44247  -9296243.46346  22542602.8144   22542604.5124   22542602.593
        44.2004         41.6004
 -16844563.16747 -13115041.60447  22119766.0394   22119764.7134   22119767.127
        45.1004         42.3004
 -25414388.85248 -19783146.82047  20260471.0024   20260471.6504   20260470.851
        50.8004         47.8004
 -18978988.39647 -14055106.25247  21418414.6724   21418412.3004   21418416.360
        45.8004         43.0004
 -15078920.58247 -11319574.01546  22405368.5664   22405366.6824   22405368.642
        44.2004         41.4004
 16 10 26  0  6  0.0000000  0  9G24G31G32G01G25G14G10G18G12
  -5884243.05846  -4317325.42346  23821550.5254   23821552.0724   23821550.256
        39.4004         36.9004
 -13163076.26747 -10228602.89647  22483716.3954   22483715.0184   22483715.081
        44.9004         42.1004
 -23891035.87648 -18600586.73447  20744232.4144   20744232.1094   20744232.514
        50.5004         47.3004
   -796222.93746   -603719.75845  24705322.9384   24705322.7014   24705323.403
        37.3004         35.3004
 -12020850.60147  -9356894.99246  22527791.1254   22527792.5924   22527791.172
        44.4004         41.6004
 -16897850.28747 -13156563.98847  22109625.7704   22109624.3584   22109625.670
        45.3004         42.3004
 -25396506.46348 -19769212.50047  20263874.2064   20263874.6584   20263873.921
        50.8004         47.8004
 -18912459.17047 -14003265.31547  21431074.8234   21431072.8574   21431074.929
        45.8004         42.8004
 -15096563.10747 -11333321.41046  22402010.9764   22402009.5744   22402011.335
        44.2004         41.6004
 16 10 26  0  6 30.0000000  0  9G24G31G32G01G25G14G10G18G12
  -5782263.87946  -4237861.12946  23840956.7874   23840957.3944   23840956.080
        39.2004         36.9004
 -13257698.10747 -10302334.16246  22465709.7024   22465708.4924   22465709.553
        44.8004         41.9004
 -23912489.71548 -18617303.99847  20740149.6914   20740149.7564   20740148.982
        50.5004         47.3004
   -858551.99346   -652287.81945  24693462.3424   24693462.3704   24693462.102
        37.6004         35.3004
 -12098313.88447  -9417255.96846  22513049.8404   22513051.3164   22513049.978
        44.4004         41.2004
 -16950995.94747 -13197976.14347  22099512.3734   22099510.7884   22099512.849
        45.3004         42.3004
 -25378112.08848 -19754879.21748  20267374.9394   20267375.1514   20267375.064
        50.8004         48.0004
 -18845549.63747 -13951128.04147  21443807.4744   21443805.4994   21443807.882
        45.8004         42.8004
 -15113603.52147 -11346599.62146  22398767.9744   22398766.4464   22398767.664
        44.2004         41.4004
 16 10 26  0  7  0.0000000  0  9G24G31G32G01G25G14G10G18G12
  -5680183.79846  -4158318.20746  23860382.0934   23860383.7534   23860381.513
        39.0004         36.4004
 -13352013.94747 -10375826.98446  22447762.6814   22447760.9294   22447762.682
        44.9004         41.9004
 -23933714.09948 -18633842.46247  20736110.5134   20736110.8204   20736110.001
        50.5004         47.3004
   -920428.83346   -700503.57645  24681686.7174   24681686.7324   24681687.117
        37.5004         35.5004
 -12175401.17847  -9477323.94246  22498379.8484   22498382.6944   22498380.709
        44.4004         41.2004
 -17003999.17847 -13239277.31247  22089426.0884   22089424.8254   22089426.712
        45.3004         42.3004
 -25359205.40648 -19740146.74148  20270972.7564   20270973.0814   20270972.482
        51.0004         48.0004
 -18778260.67247 -13898695.11747  21456611.8374   21456609.7834   21456612.849
        45.8004         42.8004
 -15130041.06947 -11359408.06346  22395640.8544   22395638.9854   22395640.735
        44.2004         41.4004
 16 10 26  0  7 30.0000000  0  9G24G31G32G01G25G14G10G18G12
  -5578004.79046  -4078698.21746  23879826.7684   23879826.8284   23879825.261
        39.0004         36.6004
 -13446022.08847 -10449080.04647  22429874.2264   22429871.5394   22429874.678
        45.1004         42.1004
 -23954708.89648 -18650202.03647  20732115.6864   20732115.6914   20732115.665
        50.5004         47.3004
   -981851.59746   -748365.41245  24669997.2644   24670000.3204   24669998.088
        37.8004         35.9004
 -12252109.27647  -9537096.46146  22483783.5524   22483784.7504   22483783.569
        44.2004         41.4004
 -17056860.20947 -13280467.66947  22079367.0684   22079365.6034   22079367.547
        45.3004         42.3004
 -25339786.09548 -19725014.80847  20274667.5294   20274668.5504   20274667.881
        51.0004         47.8004
 -18710593.27747 -13845967.28947  21469488.3614   21469486.6264   21469489.457
        45.6004         42.6004
 -15145874.10847 -11371745.47446  22392627.9234   22392624.8154   22392628.781
        44.2004         41.4004
 16 10 26  0  8  0.0000000  0  9G24G31G32G01G25G14G10G18G12
  -5475729.35046  -3999003.04346  23899288.2274   23899288.8934   23899288.139
        39.0004         36.7004
 -13539721.15747 -10522092.25646  22412042.7914   22412040.2284   22412042.512
        45.1004         41.9004
 -23975473.91948 -18666382.55547  20728163.9764   20728164.3464   20728163.340
        50.5004         47.3004
  -1042818.37046   -795872.01746  24658396.9934   24658397.7054   24658395.363
        38.3004         36.2004
 -12328435.05347  -9596571.04446  22469259.5994   22469260.7104   22469260.578
        44.2004         41.2004
 -17109579.13947 -13321547.32747  22069334.9844   22069333.4854   22069336.183
        45.5004         42.5004
 -25319853.87548 -19709483.21947  20278460.4874   20278461.2804   20278460.353
        50.8004         47.8004
 -18642548.70747 -13792945.58347  21482436.8584   21482435.2274   21482437.778
        45.8004         42.8004
 -15161101.77347 -11383611.17446  22389729.6304   22389727.8344   22389730.027
        44.2004         41.2004
 16 10 26  0  8 30.0000000  0  9G24G31G32G01G25G14G10G18G12
  -5373359.53746  -3919234.34546  23918768.7724   23918769.6514   23918767.971
        39.0004         36.6004
 -13633109.25547 -10594862.17347  22394271.7464   22394270.4354   22394271.215
        45.3004         42.6004
 -23996009.02848 -18682383.92847  20724256.6474   20724256.6774   20724256.437
        50.5004         47.5004
  -1103327.23646   -843021.77346  24646882.6574   24646883.9724   24646881.768
        38.3004         36.0004
 -12404375.35847  -9655745.27246  22454808.3974   22454809.4954   22454808.395
        44.2004         41.4004
 -17162156.13647 -13362516.36447  22059329.5764   22059328.5704   22059329.499
        45.5004         42.5004
 -25299408.44948 -19693551.72647  20282351.4424   20282351.8624   20282351.395
        50.8004         47.8004
 -18574127.89147 -13739630.68447  21495457.6964   21495455.1234   21495458.176
        45.8004         42.8004
 -15175722.64247 -11395004.02746  22386948.6164   22386945.0744   22386948.015
        44.1004         41.2004
 16 10 26  0  9  0.0000000  0  9G24G31G32G01G25G14G10G18G12
  -5270897.50046  -3839393.81946  23938265.5634   23938267.5264   23938266.541
        38.5004         36.0004
 -13726184.54547 -10667388.33547  22376560.4884   22376558.0754   22376560.858
        45.5004         42.6004
 -24016314.02148 -18698205.99447  20720392.7944   20720392.8314   20720392.198
        50.5004         47.5004
  -1163376.28946   -889813.24945  24635455.2644   24635455.7814   24635455.382
        38.2004         35.7004
 -12479927.04047  -9714616.67046  22440431.8014   22440432.9844   22440432.053
        44.4004         41.8004
 -17214591.09047 -13403374.73047  22049351.6944   22049350.0404   22049351.819
        45.5004         42.5004
 -25278449.58048 -19677220.14648  20286339.8034   20286340.3104   20286339.912
        51.0004         48.0004
 -18505331.86747 -13686023.43047  21508548.3544   21508546.6374   21508548.825
        45.6004         42.5004
 -15189735.97547 -11405923.49846  22384280.5114   22384278.6234   22384279.746
        44.1004         41.1004
 16 10 26  0  9 30.0000000  0  9G24G31G32G01G25G14G10G18G12
  -5168345.09746  -3759482.85446  23957781.0664   23957782.6144   23957781.606
        38.7004         36.6004
 -13818945.58047 -10739669.62547  22358908.7604   22358906.3364   22358907.929
        45.3004         42.1004
 -24036388.70148 -18713848.58247  20716573.0044   20716572.5474   20716572.171
        50.5004         47.5004
  -1222963.72146   -936244.99545  24624116.3964   24624116.2064   24624115.636
        37.8004         35.3004
 -12555087.02547  -9773182.85146  22426129.2464   22426130.1274   22426129.487
        44.6004         41.8004
 -17266883.84547 -13444122.29547  22039400.7914   22039398.9954   22039401.679
        45.5004         42.5004
 -25256977.01548 -19660488.27848  20290425.8244   20290426.3784   20290425.941
        51.0004         48.0004
 -18436161.60347 -13632124.55047  21521710.6064   21521708.5824   21521711.649
        45.3004         42.3004
 -15203140.31947 -11416368.41146  22381730.3974   22381728.0034   22381731.979
        44.2004         41.4004
 16 10 26  0 10  0.0000000  0  9G24G31G32G01G25G14G10G18G12
  -5065704.53946  -3679503.17646  23977313.6304   23977314.4284   23977313.632
        38.9004         36.6004
 -13911390.37147 -10811704.47147  22341316.9434   22341315.4764   22341316.681
        45.5004         42.6004
 -24056232.94848 -18729311.62547  20712796.6894   20712796.4904   20712796.636
        50.7004         47.5004
  -1282087.65946   -982315.59845  24612864.3834   24612865.9434   24612865.956
        37.6004         35.3004
 -12629852.21247  -9831441.38646  22411902.0214   22411903.2104   22411902.863
        44.6004         41.8004
 -17319034.18847 -13484758.88147  22029476.8964   22029475.4044   22029476.908
        45.5004         42.5004
 -25234990.53448 -19643355.95748  20294609.6964   20294610.3604   20294609.975
        51.0004         48.0004
 -18366617.99647 -13577934.75547  21534944.5844   21534943.2494   21534945.375
        45.3004         42.3004
 -15215934.99647 -11426338.26946  22379295.9454   22379293.0344   22379295.001
        44.2004         41.2004
 16 10 26  0 10 30.0000000  0 10G24G31G32G01G25G11G14G10G18G12
  -4962977.95946  -3599456.50546  23996860.9684   23996863.2414   23996862.607
        39.0004         36.4004
 -14003517.39647 -10883491.71947  22323785.6614   22323783.4884   22323785.674
        45.5004         42.5004
 -24075846.58748 -18744594.97547  20709064.3484   20709064.2564   20709063.544
        50.7004         47.5004
  -1340746.31946  -1028023.62945  24601703.0914   24601702.8724   24601702.005
        37.5004         35.3004
 -12704219.45647  -9889389.84446  22397750.0414   22397751.4554   22397749.522
        44.6004         41.8004
       964.15744       399.57943          .000            .000    24757740.822
        26.4004         23.4004
 -17371042.09847 -13525284.49347  22019580.1174   22019578.7654   22019580.911
        45.5004         42.6004
 -25212489.94048 -19625823.03248  20298891.6384   20298892.0484   20298891.411
        51.0004         48.0004
 -18296702.27247 -13523455.00547  21548249.2794   21548247.3634   21548249.875
        45.3004         42.3004
 -15228118.71047 -11435832.05246  22376976.8854   22376973.0624   22376977.190
        44.1004         41.2004
 16 10 26  0 11  0.0000000  0 10G24G31G32G01G25G11G14G10G18G12
  -4860167.49246  -3519344.47746  24016426.2854   24016427.4554   24016426.521
        38.7004         36.4004
 -14095325.03547 -10955030.08347  22306314.6544   22306312.7714   22306314.607
        45.5004         42.8004
 -24095229.39048 -18759698.44347  20705375.2844   20705375.6234   20705375.350
        50.5004         47.5004
  -1398937.75246  -1073367.60545  24590628.0274   24590630.6064   24590628.357
        37.6004         35.5004
 -12778185.73547  -9947025.83246  22383674.0264   22383675.4354   22383674.854
        44.6004         41.6004
      4027.36344      2786.59445          .000            .000    24758323.536
        26.4004         34.1004
 -17422907.99447 -13565699.42847  22009709.9904   22009708.2804   22009711.289
        45.5004         42.5004
 -25189475.04948 -19607889.35348  20303271.6264   20303271.5944   20303271.669
        51.0004         48.0004
 -18226415.28947 -13468685.95847  21561624.5184   21561622.4284   21561624.958
        45.5004         42.5004
 -15239690.38947 -11444848.90946  22374775.4074   22374771.7804   22374774.961
        44.2004         41.4004
 16 10 26  0 11 30.0000000  0 10G24G31G32G01G25G11G14G10G18G12
  -4757275.19046  -3439168.68046  24036006.4514   24036006.2334   24036006.976
        38.9004         36.4004
 -14186811.69547 -11026318.35647  22288905.0154   22288903.7244   22288905.651
        45.6004         42.5004
 -24114381.18048 -18774621.90847  20701731.3494   20701730.8034   20701730.493
        50.5004         47.3004
  -1456660.21546  -1118346.17145  24579646.5954   24579645.9744   24579646.105
        37.8004         35.7004
 -12851747.89447 -10004346.95446  22369675.5814   22369677.2834   22369677.167
        44.6004         41.6004
      7614.77444      5581.92145          .000            .000    24759006.621
        26.4004         34.6004
 -17474631.62147 -13606003.50847  21999867.5454   21999866.1704   21999867.625
        45.5004         42.6004
 -25165945.70548 -19589554.80248  20307749.3654   20307749.2494   20307749.185
        51.2004         48.2004
 -18155758.30447 -13413628.59447  21575070.5784   21575068.5104   21575071.398
        45.5004         42.5004
 -15250648.92347 -11453388.00446  22372688.2004   22372687.1924   22372688.902
        44.1004         41.1004
 16 10 26  0 12  0.0000000  0 10G24G31G32G01G25G11G14G10G18G12
  -4654303.07946  -3358930.65246  24055601.5324   24055600.1814   24055601.086
        38.7004         36.0004
 -14277975.66147 -11097355.19147  22271557.0944   22271556.2674   22271557.037
        45.6004         42.8004
 -24133301.76948 -18789365.21947  20698130.5244   20698130.4344   20698130.132
        50.5004         47.5004
  -1513912.00346  -1162957.94045  24568750.8664   24568751.3104   24568749.532
        38.0004         35.7004
 -12924902.89947 -10061350.81746  22355755.5094   22355755.8634   22355755.685
        44.6004         41.8004
     11725.65045      8785.14845          .000    24759786.7684   24759785.715
        35.6004         34.8004
 -17526212.60347 -13646196.45247  21990052.2314   21990049.9374   21990052.722
        45.5004         42.6004
 -25141901.75048 -19570819.25248  20312324.7544   20312324.5284   20312325.220
        51.2004         48.2004
 -18084732.53647 -13358283.88647  21588586.1284   21588584.7174   21588587.276
        45.5004         42.3004
 -15260993.80247 -11461448.91646  22370721.0314   22370718.5824   22370720.920
        44.1004         41.1004
 16 10 26  0 12 30.0000000  0 10G24G31G32G01G25G11G14G10G18G12
  -4551253.64646  -3278632.38546  24075210.6584   24075210.2204   24075210.152
        38.5004         36.2004
 -14368815.34947 -11168139.32447  22254270.9454   22254269.5634   22254271.346
        45.6004         42.6004
 -24151990.97048 -18803928.21447  20694574.3324   20694574.1924   20694574.131
        50.5004         47.5004
  -1570691.29546  -1207201.55946  24557946.6174   24557948.1374   24557946.085
        38.3004         36.2004
 -12997647.70347 -10118035.01246  22341912.3594   22341913.1094   22341912.940
        44.8004         41.8004
     16358.92546     12395.45445  24760670.8634   24760669.0204   24760670.694
        36.8004         35.2004
 -17577651.10247 -13686278.36047  21980264.1944   21980261.6014   21980264.887
        45.6004         42.6004
 -25117343.04848 -19551682.60148  20316997.8814   20316997.8514   20316997.645
        51.2004         48.0004
 -18013338.97747 -13302652.57447  21602171.6924   21602169.6314   21602172.718
        45.3004         42.1004
 -15270723.83447 -11469030.73746  22368869.3344   22368866.6484   22368869.793
        44.1004         41.2004
 16 10 26  0 13  0.0000000  0 10G24G31G32G01G25G11G14G10G18G12
  -4448128.61946  -3198275.22046  24094835.1044   24094835.2124   24094836.406
        38.9004         36.7004
 -14459329.13247 -11238669.46847  22237046.7014   22237045.7274   22237045.308
        45.6004         42.6004
 -24170448.60748 -18818310.77547  20691061.8514   20691061.6424   20691061.637
        50.5004         47.5004
  -1626996.37146  -1251075.63645  24547229.7014   24547232.4384   24547229.528
        38.2004         35.7004
 -13069979.25647 -10174397.22447  22328148.4934   22328149.2364   22328149.588
        44.9004         42.1004
     21513.79546     16412.23945  24761650.4684   24761649.8714   24761651.903
        36.8004         34.8004
 -17628947.06447 -13726249.24047  21970502.5794   21970500.4914   21970503.432
        45.6004         42.8004
 -25092269.52448 -19532144.79248  20321768.9784   20321769.2634   20321768.812
        51.0004         48.0004
 -17941578.61147 -13246735.43846  21615827.2424   21615825.2124   21615826.814
        45.1004         41.8004
 -15279837.97047 -11476132.63846  22367135.3214   22367131.4714   22367135.460
        44.1004         41.2004
 16 10 26  0 13 30.0000000  0 10G24G31G32G01G25G11G14G10G18G12
  -4344930.12046  -3117860.82846  24114473.1154   24114472.0934   24114472.689
        39.0004         36.6004
 -14549515.60847 -11308944.58747  22219885.1094   22219883.6344   22219884.963
        45.5004         42.6004
 -24188674.43348 -18832512.70347  20687593.5174   20687593.2774   20687592.947
        50.5004         47.5004
  -1682825.42146  -1294578.84345  24536607.1404   24536608.3424   24536607.960
        38.0004         35.7004
 -13141894.50547 -10230435.03346  22314463.3174   22314464.4794   22314462.912
        44.9004         41.9004
     27189.40546     20834.81145  24762728.8704   24762731.8144   24762731.058
        36.4004         34.6004
 -17680100.47547 -13766109.04447  21960768.1804   21960766.9064   21960769.348
        45.8004         42.8004
 -25066681.05048 -19512205.73248  20326638.5284   20326638.6044   20326638.455
        51.0004         48.0004
 -17869452.54747 -13190533.36046  21629552.6274   21629550.3844   21629552.467
        44.9004         41.9004
 -15288335.79347 -11482754.28646  22365518.1884   22365515.2424   22365516.464
        44.1004         41.2004
 16 10 26  0 14  0.0000000  0 10G24G31G32G01G25G11G14G10G18G12
  -4241660.39546  -3037390.89946  24134125.2744   24134124.1724   24134123.776
        38.9004         36.4004
 -14639372.92647 -11378963.23947  22202786.3644   22202783.7664   22202786.573
        45.8004         42.8004
 -24206668.28048 -18846533.86247  20684168.9904   20684169.2134   20684168.628
        50.5004         47.3004
  -1738176.82446  -1337709.79446  24526074.3004   24526074.8254   24526073.960
        38.3004         36.0004
 -13213390.45747 -10286146.12946  22300857.7334   22300858.7224   22300858.196
        44.9004         41.8004
     33384.59946     25662.15845  24763909.9104   24763911.3804   24763909.245
        36.1004         34.3004
 -17731110.94747 -13805857.45347  21951060.8604   21951059.2244   21951061.590
        45.6004         42.6004
 -25040577.59448 -19491865.37448  20331605.6524   20331605.9004   20331606.016
        51.0004         48.0004
 -17796962.15147 -13134047.34846  21643347.4154   21643345.3814   21643347.595
        44.9004         41.9004
 -15296216.24847 -11488894.88446  22364018.6354   22364015.2564   22364018.134
        44.1004         41.2004
 16 10 26  0 14 30.0000000  0 10G24G31G32G01G25G11G14G10G18G12
  -4138321.08346  -2956866.76146  24153790.2104   24153789.4624   24153789.926
        38.7004         36.2004
 -14728899.65947 -11448724.28147  22185748.9754   22185747.4614   22185749.386
        45.8004         42.8004
 -24224429.92648 -18860374.09847  20680789.1384   20680789.1804   20680788.602
        50.5004         47.3004
  -1793048.80146  -1380467.18546  24515631.6634   24515633.1334   24515630.231
        38.3004         36.0004
 -13284464.14847 -10341528.19646  22287332.3654   22287334.3564   22287332.445
        44.8004         41.9004
     40098.46945     30893.64945  24765187.8374   24765188.9284   24765187.639
        35.7004         34.0004
 -17781978.55247 -13845494.57347  21941381.5304   21941379.4074   21941382.387
        45.8004         42.8004
 -25013959.06148 -19471123.67048  20336670.8784   20336671.2924   20336670.961
        51.0004         48.0004
 -17724108.32047 -13077278.14646  21657209.1474   21657209.3824   21657211.395
        44.8004         41.8004
 -15303478.49847 -11494553.73746  22362635.9654   22362633.7144   22362635.841
        43.9004         40.9004
 16 10 26  0 15  0.0000000  0 10G24G31G32G01G25G11G14G10G18G12
  -4034914.24146  -2876289.99346  24173467.6514   24173466.2834   24173466.762
        38.5004         36.0004
 -14818094.03247 -11518226.35547  22168776.4434   22168774.4864   22168776.591
        46.0004         43.0004
 -24241959.19748 -18874033.26147  20677453.2814   20677453.6394   20677452.810
        50.5004         47.3004
  -1847439.69546  -1422849.65046  24505283.6614   24505283.0264   24505283.883
        38.5004         36.4004
 -13355112.49747 -10396578.83846  22273888.8834   22273889.7854   22273889.144
        44.8004         41.6004
     47330.15145     36528.72845  24766564.7354   24766563.0274   24766563.617
        35.4004         33.8004
 -17832703.13447 -13885020.24447  21931729.2804   21931726.9934   21931729.724
        45.8004         42.8004
 -24986825.45348 -19449980.61248  20341834.3024   20341834.4974   20341834.408
        51.0004         48.0004
 -17650892.56847 -13020226.94046  21671142.8014   21671142.2054   21671142.579
        44.8004         41.8004
 -15310121.48647 -11499730.07346  22361371.9224   22361368.9354   22361372.984
        43.9004         41.1004
 16 10 26  0 15 30.0000000  0 10G24G31G32G01G25G11G14G10G18G12
  -3931442.04046  -2795662.31646  24193157.4034   24193157.1594   24193156.984
        38.3004         36.2004
 -14906954.56347 -11587468.27947  22151866.8174   22151865.3074   22151866.258
        46.0004         43.0004
 -24259255.81148 -18887511.13447  20674162.0684   20674162.2294   20674161.608
        50.5004         47.3004
  -1901347.85246  -1464855.99646  24495023.2174   24495025.3564   24495022.936
        38.5004         36.2004
 -13425332.50547 -10451295.68946  22260526.4784   22260527.4924   22260527.523
        44.8004         41.8004
     55078.31045     42566.31845  24768037.0914   24768037.6964   24768037.480
        35.7004         34.1004
 -17883284.79647 -13924434.52547  21922103.3244   21922101.3794   21922103.918
        45.8004         42.6004
 -24959176.74048 -19428436.17547  20347095.4794   20347095.7054   20347095.196
        51.0004         47.8004
 -17577315.93147 -12962894.51446  21685143.8354   21685142.8854   21685144.566
        44.8004         41.9004
 -15316144.73247 -11504423.48346  22360226.1404   22360223.3984   22360225.864
        44.1004         41.4004
 16 10 26  0 16  0.0000000  0 10G24G31G32G01G25G11G14G10G18G12
  -3827906.72246  -2714985.44146  24212859.7374   24212858.4654   24212860.209
        38.3004         36.0004
 -14995479.95047 -11656449.04347  22135020.5594   22135019.1494   22135020.799
        46.0004         42.8004
 -24276319.64448 -18900807.62247  20670914.8374   20670914.8624   20670914.582
        50.5004         47.5004
  -1954771.63146  -1506484.92845  24484859.3714   24484858.0554   24484860.379
        38.2004         35.5004
 -13495121.23147 -10505676.48946  22247245.3564   22247247.0894   22247246.105
        44.6004         41.6004
     63342.12445     49005.69445  24769609.5374   24769607.2084   24769610.023
        35.7004         34.0004
 -17933723.53347 -13963737.46347  21912505.9204   21912503.6044   21912506.024
        45.8004         43.0004
 -24931012.93848 -19406490.35947  20352454.8264   20352455.1484   20352454.955
        50.8004         47.8004
 -17503379.59647 -12905281.79146  21699213.9874   21699212.3544   21699214.711
        44.8004         41.8004
 -15321547.48847 -11508633.40646  22359197.8384   22359195.5954   22359198.673
        44.1004         41.2004
 16 10 26  0 16 30.0000000  0 10G24G31G32G01G25G11G14G10G18G12
  -3724310.06746  -2634260.78546  24232573.0064   24232573.0174   24232573.600
        38.3004         36.0004
 -15083668.10447 -11725167.04547  22118239.0144   22118236.7734   22118239.363
        45.8004         42.6004
 -24293150.40848 -18913922.49847  20667712.0824   20667712.1374   20667711.450
        50.5004         47.3004
  -2007709.37446  -1547735.16045  24474784.5434   24474782.3404   24474784.576
        37.6004         35.3004
 -13564475.70747 -10559718.91346  22234047.6694   22234049.5184   22234047.690
        44.6004         41.8004
     72120.41245     55845.94145  24771280.4984   24771281.5594   24771281.333
        35.6004         34.1004
 -17984018.93947 -14002928.70747  21902934.2324   21902932.2024   21902935.324
        45.8004         42.6004
 -24902334.04848 -19384143.17648  20357912.3404   20357912.6334   20357912.176
        51.0004         48.0004
 -17429084.86047 -12847389.77947  21713351.7604   21713350.0734   21713352.410
        44.9004         42.1004
 -15326328.96847 -11512359.19346  22358287.8554   22358284.6084   22358287.615
        44.1004         41.1004
 16 10 26  0 17  0.0000000  0 10G24G31G32G01G25G11G14G10G18G12
  -3620653.74546  -2553489.62845  24252299.0044   24252297.9384   24252297.923
        38.3004         35.9004
 -15171517.95547 -11793621.41647  22101521.9744   22101519.6774   22101521.739
        46.0004         43.2004
 -24309747.91148 -18926855.60347  20664554.0764   20664553.9064   20664554.367
        50.5004         47.5004
  -2060159.45846  -1588605.36345  24464804.3714   24464804.2554   24464802.401
        37.8004         35.9004
 -13633393.00847 -10613420.68346  22220933.4354   22220934.8094   22220933.882
        44.8004         41.9004
     81411.97445     63086.15645  24773047.5524   24773047.4764   24773050.079
        35.7004         34.0004
 -18034170.94047 -14042008.19847  21893390.6134   21893389.1184   21893391.140
        45.8004         42.8004
 -24873140.12948 -19361394.67747  20363467.8544   20363468.2254   20363468.287
        50.8004         47.8004
 -17354432.48947 -12789219.09346  21727558.2914   21727555.7414   21727558.252
        44.9004         41.9004
 -15330488.73447 -11515600.54946  22357496.7384   22357494.0064   22357496.193
        44.1004         41.2004
 16 10 26  0 17 30.0000000  0 10G24G31G32G01G25G11G14G10G18G12
  -3516940.45246  -2472674.07746  24272034.2014   24272034.4614   24272033.215
        38.3004         36.0004
 -15259027.96347 -11861810.98147  22084868.8144   22084866.7154   22084869.170
        46.2004         43.2004
 -24326111.92348 -18939606.76947  20661439.7594   20661439.9404   20661438.773
        50.5004         47.5004
  -2112120.36246  -1629094.37745  24454914.3944   24454915.6134   24454914.952
        38.0004         35.7004
 -13701870.16347 -10666779.49146  22207902.7084   22207903.8234   22207904.013
        44.8004         41.9004
     91215.83045     70725.58345  24774912.7734   24774912.7564   24774912.680
        35.0004         33.4004
 -18084179.46247 -14080975.87447  21883874.5134   21883872.9514   21883875.321
        45.8004         42.8004
 -24843431.26348 -19338244.91947  20369121.0644   20369121.2934   20369120.656
        50.8004         47.8004
 -17279424.48547 -12730771.28846  21741830.8254   21741828.9034   21741832.314
        44.8004         41.6004
 -15334026.38747 -11518357.13646  22356823.4384   22356819.9004   22356823.251
        44.2004         41.4004
 16 10 26  0 18  0.0000000  0 10G24G31G32G01G25G11G14G10G18G12
  -3413171.63846  -2391815.27146  24291781.8674   24291781.5824   24291782.622
        38.7004         36.6004
 -15346196.80347 -11929734.72647  22068280.7834   22068278.5934   22068281.220
        46.2004         43.0004
 -24342242.17648 -18952175.79147  20658370.7444   20658370.5094   20658370.384
        50.5004         47.5004
  -2163590.41946  -1669200.93846  24445121.0084   24445121.6714   24445120.511
        38.2004         36.0004
 -13769904.22147 -10719793.02246  22194956.4884   22194957.6834   22194956.080
        44.8004         41.8004
    101530.77645     78763.15945  24776876.4324   24776877.1184   24776877.820
        35.0004         33.6004
 -18134044.68747 -14119831.87947  21874385.3314   21874383.7594   21874385.710
        45.8004         42.8004
 -24813207.47948 -19314693.92747  20374872.6774   20374873.0964   20374872.642
        50.8004         47.8004
 -17204061.65347 -12672047.02946  21756171.6954   21756170.0984   21756172.278
        44.4004         41.4004
 -15336940.77147 -11520628.05346  22356268.9234   22356265.4134   22356267.686
        44.1004         41.2004
 16 10 26  0 18 30.0000000  0 10G24G31G32G01G25G11G14G10G18G12
  -3309349.80446  -2310915.14346  24311538.3684   24311537.1584   24311537.662
        38.9004         36.6004
 -15433022.66047 -11997391.17847  22051758.4884   22051757.5444   22051758.456
        46.2004         43.2004
 -24358138.50948 -18964562.53747  20655345.4064   20655345.5634   20655345.332
        50.5004         47.5004
  -2214568.11746  -1708923.80046  24435420.9974   24435421.8974   24435421.537
        38.5004         36.2004
 -13837492.32647 -10772459.04546  22182094.7774   22182096.0204   22182094.690
        44.8004         41.9004
    112355.69245     87198.19245  24778937.7534   24778939.8584   24778936.726
        34.7004         32.9004
 -18183766.23647 -14158575.91147  21864923.5004   21864922.1724   21864923.695
        45.8004         43.0004
 -24782468.92848 -19290741.81148  20380722.3314   20380722.3804   20380722.636
        51.0004         48.0004
 -17128345.08247 -12613047.11346  21770580.0574   21770578.7524   21770581.767
        44.4004         41.8004
 -15339231.22547 -11522412.79246  22355832.2654   22355830.2734   22355832.836
        44.2004         41.6004
 16 10 26  0 19  0.0000000  0 10G24G31G32G01G25G11G14G10G18G12
  -3205475.83746  -2229974.38946  24331305.1954   24331304.0034   24331304.482
        38.9004         36.6004
 -15519504.13047 -12064779.27347  22035301.1054   22035301.4074   22035301.458
        46.2004         43.3004
 -24373800.62248 -18976766.76747  20652364.9254   20652365.2734   20652364.748
        50.5004         47.5004
  -2265051.92946  -1748261.85845  24425813.1854   24425813.5924   24425813.157
        38.3004         35.9004
 -13904631.54347 -10824775.29846  22169318.4624   22169319.6954   22169319.330
        44.8004         41.9004
    123689.25345     96029.65845  24781094.0834   24781094.5094   24781094.166
        35.0004         33.4004
 -18233344.01747 -14197207.91147  21855489.3084   21855487.7774   21855490.075
        45.8004         43.0004
 -24751215.71648 -19266388.66747  20386669.4874   20386669.3644   20386669.557
        51.0004         47.8004
 -17052276.23247 -12553772.69546  21785055.8454   21785054.2894   21785057.660
        44.6004         41.6004
 -15340897.27147 -11523710.99646  22355515.1244   22355512.3834   22355514.414
        44.2004         41.4004
 16 10 26  0 19 30.0000000  0 10G24G31G32G01G25G11G14G10G18G12
  -3101552.60546  -2148995.23646  24351080.1284   24351079.8144   24351080.747
        38.7004         36.2004
 -15605639.84347 -12131897.96147  22018909.8164   22018908.9434   22018909.743
        46.2004         43.0004
 -24389228.30348 -18988788.32147  20649429.3614   20649429.3034   20649429.043
        50.5004         47.5004
  -2315040.28646  -1787213.83245  24416301.7234   24416301.6844   24416301.927
        38.2004         35.9004
 -13971319.00947 -10876739.54247  22156628.6444   22156629.5994   22156628.898
        45.1004         42.3004
    135530.18745    105256.29245  24783349.8364   24783346.7194   24783347.608
        35.0004         33.6004
 -18282778.03247 -14235727.87647  21846082.1964   21846080.6914   21846083.305
        46.0004         43.0004
 -24719447.98648 -19241634.60048  20392714.9364   20392714.8754   20392714.709
        51.0004         48.0004
 -16975856.56647 -12494224.91346  21799598.5964   21799596.7714   21799598.283
        44.6004         41.6004
 -15341938.96647 -11524522.67846  22355317.1764   22355314.6804   22355317.821
        44.2004         41.6004
 16 10 26  0 20  0.0000000  0 10G24G31G32G01G25G11G14G10G18G12
  -2997581.78746  -2067979.03446  24370865.9864   24370864.6874   24370865.691
        38.5004         36.2004
 -15691427.99847 -12198745.84647  22002586.2804   22002583.8414   22002586.119
        46.2004         43.3004
 -24404421.29048 -19000626.99947  20646537.8044   20646538.2494   20646537.660
        50.5004         47.5004
  -2364531.70646  -1825778.60845  24406883.6234   24406882.3104   24406883.337
        37.8004         35.3004
 -14037551.80447 -10928349.48347  22144025.2464   22144025.9224   22144025.700
        45.3004         42.5004
    147877.45945    114877.39445  24785696.1674   24785697.1504   24785697.932
        35.6004         33.8004
 -18332067.98747 -14274135.59147  21836702.7584   21836700.7764   21836703.457
        46.0004         43.0004
 -24687165.85948 -19216479.69748  20398857.7194   20398857.9754   20398858.233
        51.0004         48.0004
 -16899087.18847 -12434404.62446  21814206.9604   21814205.2604   21814207.303
        44.4004         41.2004
 -15342355.59847 -11524847.32246  22355238.1274   22355235.4794   22355238.024
        44.4004         41.6004
 16 10 26  0 20 30.0000000  0 10G24G31G32G01G25G11G14G10G18G12
  -2893565.68446  -1986927.52846  24390657.5104   24390659.6134   24390657.913
        38.5004         36.2004
 -15776867.44547 -12265321.97147  21986327.5624   21986325.1884   21986327.417
        46.5004         43.7004
 -24419379.38248 -19012282.63747  20643691.4804   20643691.5634   20643690.711
        50.5004         47.5004
  -2413524.72246  -1863954.99645  24397560.0544   24397560.7804   24397561.548
        37.8004         35.7004
 -14103327.12547 -10979602.95747  22131507.6754   22131509.1494   22131509.003
        45.3004         42.3004
    160729.62145    124891.91445  24788141.3134   24788143.9634   24788141.215
        35.0004         33.1004
 -18381213.78647 -14312430.98147  21827350.4214   21827348.6604   21827351.278
        46.0004         43.0004
 -24654369.54148 -19190924.12548  20405098.8044   20405099.0424   20405098.760
        51.0004         48.0004
 -16821969.45647 -12374312.90746  21828882.3764   21828880.3844   21828883.571
        44.2004         41.4004
 -15342145.92747 -11524683.91246  22355277.9634   22355275.4474   22355278.004
        44.4004         41.2004
 16 10 26  0 21  0.0000000  0 10G24G31G32G01G25G11G14G10G18G12
  -2789505.82746  -1905841.92846  24410460.3464   24410460.8944   24410460.065
        38.3004         36.0004
 -15861956.62547 -12331625.16147  21970136.0104   21970132.8594   21970134.476
        46.7004         43.7004
 -24434102.30848 -19023755.04347  20640889.7294   20640889.8444   20640889.909
        50.5004         47.5004
  -2462017.82846  -1901741.82045  24388332.2774   24388332.4274   24388332.058
        38.0004         35.9004
 -14168642.08447 -11030497.71447  22119079.6274   22119079.7414   22119080.714
        45.5004         42.3004
    174085.70545    135299.22745  24790685.2394   24790681.5864   24790684.111
        34.9004         33.4004
 -18430215.35047 -14350613.97947  21818025.5414   21818024.2694   21818026.805
        46.2004         43.2004
 -24621059.24048 -19164968.05348  20411437.8244   20411437.9704   20411437.835
        51.0004         48.0004
 -16744504.84547 -12313950.88246  21843623.9554   21843621.0604   21843623.165
        44.2004         41.4004
 -15341309.98147 -11524032.51946  22355437.2074   22355434.4884   22355436.697
        44.2004         41.2004
 16 10 26  0 21 30.0000000  0 10G24G31G32G01G25G11G14G10G18G12
  -2685404.01146  -1824723.63546  24430271.1314   24430270.5034   24430271.599
        38.5004         36.2004
 -15946694.21947 -12397654.39947  21954010.0464   21954007.6194   21954009.473
        46.7004         43.5004
 -24448589.78248 -19035043.95247  20638132.9474   20638133.0454   20638132.133
        50.5004         47.5004
  -2510009.56746  -1939138.00046  24379198.9834   24379200.6524   24379198.441
        38.5004         36.7004
 -14233493.89547 -11081031.57147  22106737.9554   22106739.5394   22106738.565
        45.5004         42.3004
    187944.28745    146098.08345  24793319.0154   24793319.7754   24793322.056
        35.4004         34.0004
 -18479072.81947 -14388684.69347  21808727.7034   21808726.4404   21808728.152
        46.2004         43.2004
 -24587235.15248 -19138611.62248  20417874.0474   20417874.4174   20417874.453
        51.0004         48.0004
 -16666694.72247 -12253319.66446  21858430.4594   21858428.3444   21858431.784
        44.4004         41.4004
 -15339847.60547 -11522892.98546  22355714.8434   22355711.2224   22355715.521
        44.2004         41.2004
 16 10 26  0 22  0.0000000  0 10G24G31G32G01G25G11G14G10G18G12
  -2581262.01046  -1743574.00745  24450088.3694   24450088.9204   24450089.169
        38.3004         35.9004
 -16031078.99247 -12463408.72947  21937952.1554   21937950.7204   21937951.921
        46.5004         43.5004
 -24462841.60148 -19046149.26347  20635421.2274   20635421.0454   20635421.179
        50.5004         47.5004
  -2557498.55446  -1976142.40646  24370163.7314   24370163.4244   24370161.666
        38.9004         36.4004
 -14297879.72247 -11131202.28947  22094485.4894   22094487.6754   22094486.002
        45.3004         42.3004
    202303.90645    157287.40245  24796055.3534   24796052.8774   24796054.306
        35.6004         34.0004
 -18527785.72047 -14426642.77447  21799458.8194   21799457.2294   21799459.333
        46.2004         43.2004
 -24552897.52348 -19111855.04847  20424407.8314   20424408.6904   20424407.393
        51.0004         47.8004
 -16588539.96547 -12192419.85846  21873302.0934   21873300.7624   21873302.928
        44.4004         41.4004
 -15337758.19147 -11521264.85046  22356112.9404   22356109.8864   22356113.403
        44.2004         41.4004
 16 10 26  0 22 30.0000000  0 10G24G31G32G01G25G11G14G10G18G12
  -2477082.06746  -1662394.83245  24469913.9844   24469912.8594   24469913.374
        38.2004         35.7004
 -16115109.47447 -12528887.01147  21921961.8164   21921960.9264   21921961.629
        46.7004         43.9004
 -24476857.47648 -19057070.71147  20632753.8154   20632753.8434   20632753.295
        50.5004         47.5004
  -2604483.40046  -2012753.95045  24361221.9024   24361222.1924   24361222.667
        38.3004         35.7004
 -14361796.75047 -11181007.72847  22082322.2864   22082324.4274   22082321.590
        45.3004         42.5004
    217163.19545    168866.01945  24798878.3224   24798880.5284   24798881.059
        35.9004         34.0004
 -18576354.16647 -14464488.29647  21790217.1834   21790214.4954   21790218.003
        46.2004         43.3004
 -24518046.59348 -19084698.48747  20431039.6734   20431040.3694   20431039.410
        50.8004         47.7004
 -16510042.24847 -12131252.80846  21888240.2264   21888237.7524   21888239.603
        44.2004         41.2004
 -15335041.72147 -11519148.09946  22356630.0984   22356626.7664   22356630.848
        44.2004         41.6004
 16 10 26  0 23  0.0000000  0 10G24G31G32G01G25G11G14G10G18G12
  -2372866.04946  -1581187.55745  24489743.2804   24489744.8934   24489743.748
        37.8004         35.5004
 -16198783.94847 -12594087.86747  21906039.5714   21906038.2834   21906039.521
        47.0004         44.2004
 -24490637.15148 -19067808.11747  20630132.0054   20630131.4984   20630131.761
        50.7004         47.5004
  -2650962.66646  -2048971.58345  24352377.4984   24352375.4604   24352377.027
        37.5004         35.0004
 -14425242.23147 -11230445.71447  22070249.3014   22070250.9524   22070249.375
        45.5004         42.6004
    232520.82645    180832.97445  24801804.6864   24801802.1534   24801804.579
        35.6004         33.8004
 -18624777.68247 -14502220.87347  21781001.6324   21781000.1924   21781002.063
        46.3004         43.3004
 -24482682.64248 -19057142.17147  20437769.4514   20437769.9414   20437769.102
        50.8004         47.8004
 -16431202.53147 -12069819.28346  21903242.2584   21903241.3064   21903242.258
        44.1004         41.1004
 -15331697.93447 -11516542.52746  22357265.1944   22357263.2374   22357265.508
        44.2004         41.4004
 16 10 26  0 23 30.0000000  0 10G24G31G32G01G25G11G14G10G18G12
  -2268616.05046  -1499953.80145  24509582.2764   24509582.6854   24509582.317
        37.8004         35.7004
 -16282101.05447 -12659010.25247  21890184.4294   21890182.4384   21890183.878
        47.0004         43.9004
 -24504180.37348 -19078361.26847  20627554.6484   20627554.5264   20627554.655
        50.7004         47.5004
  -2696934.94246  -2084794.17245  24343628.9634   24343629.6974   24343629.725
        37.5004         35.5004
 -14488213.38047 -11279514.10247  22058266.2914   22058267.9364   22058267.596
        45.6004         42.6004
    248375.77045    193187.50745  24804818.8484   24804825.0754   24804820.474
        34.9004         33.1004
 -18673056.08347 -14539840.36947  21771814.4734   21771812.7144   21771814.510
        46.3004         43.2004
 -24446805.97548 -19029186.33847  20444596.7074   20444596.9514   20444596.993
        50.8004         47.8004
 -16352022.90047 -12008120.92746  21918309.8924   21918308.2624   21918311.351
        44.1004         41.1004
 -15327725.60147 -11513447.17246  22358022.5624   22358019.9264   22358023.188
        44.4004         41.6004
 16 10 26  0 24  0.0000000  0 10G24G31G32G01G25G11G14G10G18G12
  -2164333.60546  -1418694.74445  24529427.5034   24529426.4734   24529427.129
        37.8004         35.7004
 -16365059.65247 -12723653.25747  21874397.3424   21874395.2684   21874397.419
        46.9004         43.7004
 -24517486.86048 -19088729.95447  20625022.6224   20625022.3904   20625022.568
        50.7004         47.5004
  -2742398.91746  -2120220.67546  24334976.5064   24334976.9994   24334976.774
        38.3004         36.2004
 -14550707.44747 -11328210.74847  22046374.3944   22046375.4894   22046375.188
        45.6004         42.8004
    264726.25045    205928.17645  24807933.5164   24807934.1204   24807933.807
        35.2004         33.8004
 -18721189.33147 -14577346.76047  21762654.9614   21762653.1794   21762655.355
        46.3004         43.3004
 -24410416.87448 -19000831.19947  20451520.9404   20451521.4554   20451521.168
        50.8004         47.7004
 -16272503.97347 -11946158.16446  21933442.2334   21933440.0224   21933442.045
        44.1004         41.2004
 -15323125.04947 -11509862.31246  22358897.5184   22358894.3494   22358896.787
        44.4004         41.4004
 16 10 26  0 24 30.0000000  0 10G24G31G32G01G25G11G14G10G18G12
  -2060020.50046  -1337411.79545  24549277.7904   24549278.0224   24549277.316
        37.8004         35.5004
 -16447658.17547 -12788015.71047  21858680.4314   21858676.9034   21858679.051
        46.7004         43.7004
 -24530556.36548 -19098913.98347  20622535.7034   20622535.3474   20622535.571
        50.7004         47.5004
  -2787353.31546  -2155250.08246  24326423.9564   24326423.0414   24326423.176
        38.5004         36.4004
 -14612721.71847 -11376533.52847  22034573.3224   22034574.4614   22034574.256
        45.6004         42.6004
    281570.99945    219053.87545  24811137.0674   24811138.2624   24811138.443
        35.4004         33.8004
 -18769177.13747 -14614739.81947  21753523.1484   21753521.5764   21753523.841
        46.3004         43.3004
 -24373515.71648 -18972077.06347  20458543.3174   20458543.4754   20458543.634
        50.7004         47.7004
 -16192647.61847 -11883932.46246  21948639.0824   21948637.1134   21948639.709
        44.1004         41.2004
 -15317895.89047 -11505787.61246  22359892.0814   22359890.9214   22359892.358
        44.4004         41.6004
 16 10 26  0 25  0.0000000  0 10G24G31G32G01G25G11G14G10G18G12
  -1955678.67046  -1256106.47345  24569133.2314   24569131.3944   24569132.793
        37.6004         35.3004
 -16529895.53447 -12852096.73647  21843030.8664   21843028.0994   21843030.972
        46.9004         43.7004
 -24543388.57448 -19108913.10047  20620093.8104   20620093.2404   20620093.863
        50.7004         47.5004
  -2831796.78446  -2189881.34145  24317964.3564   24317965.0774   24317964.532
        38.3004         35.9004
 -14674253.45847 -11424480.29147  22022864.0584   22022865.6734   22022865.110
        45.8004         42.8004
    298908.51445    232563.63145  24814436.0364   24814436.3154   24814436.838
        35.4004         33.6004
 -18817019.55847 -14652019.58347  21744419.2024   21744417.8544   21744419.906
        46.3004         43.3004
 -24336102.78748 -18942924.13447  20465662.9804   20465662.9964   20465663.006
        50.7004         47.8004
 -16112455.89247 -11821445.42446  21963898.0784   21963896.3184   21963899.397
        43.9004         40.9004
 -15312038.20647 -11501223.16846  22361008.1234   22361004.3614   22361007.024
        44.4004         41.6004
 16 10 26  0 25 30.0000000  0 10G24G31G32G01G25G11G14G10G18G12
  -1851310.40946  -1174780.55345  24588994.7544   24588993.4664   24588996.195
        37.3004         35.0004
 -16611770.41247 -12915895.29047  21827450.1814   21827448.4144   21827449.947
        47.0004         44.0004
 -24555983.19548 -19118727.07247  20617697.2904   20617696.8204   20617697.213
        50.7004         47.7004
  -2875728.03046  -2224113.50045  24309604.3184   24309607.0104   24309605.468
        38.0004         35.9004
 -14735299.93147 -11472048.94947  22011247.0184   22011249.0344   22011246.503
        45.6004         42.6004
    316737.24145    246456.07445  24817831.2754   24817830.7154   24817830.412
        35.2004         33.6004
 -18864716.65347 -14689186.11347  21735342.6624   21735341.0164   21735342.990
