     2.11           OBSERVATION DATA    G (GPS)             RINEX VERSION / TYPE
clockShift          gpsops              20161116 000635 UTC PGM / RUN BY / DATE
teqc  2016Apr1      gpsops              20161116 00:06:33UTCCOMMENT
Linux 2.4.21-27.ELsmp|Opteron|gcc -static|Linux x86_64|=+   COMMENT
BIT 2 OF LLI FLAGS DATA COLLECTED UNDER A/S CONDITION       COMMENT
AMC2                                                        MARKER NAME
40472S004                                                   MARKER NUMBER
GGN                 USNO                                    OBSERVER / AGENCY
RT920013101         ASHTECH Z-XII3T     IL01-1D04-MCF-12MX  REC # / TYPE / VERS
KW-0201             AOAD/M_T        NONE                    ANT # / TYPE
 -1248596.2520 -4819428.2840  3976506.0340                  APPROX POSITION XYZ
        0.0000        0.0000        0.0000                  ANTENNA: DELTA H/E/N
     1     1                                                WAVELENGTH FACT L1/2
     7    L1    L2    P1    P2    C1    S1    S2            # / TYPES OF OBSERV
    30.0000                                                 INTERVAL
                                                            COMMENT
This data is provided as a public service by NASA/JPL.      COMMENT
No warranty is expressed or implied regarding suitability   COMMENT
for use.  For further information, contact:                 COMMENT
Dave Stowers, NASA/JPL m/s 238-600                          COMMENT
4800 Oak Grove Drive, Pasadena CA 91109 USA                 COMMENT
                                                            COMMENT
Forced Modulo Decimation to 30 seconds                      COMMENT
 SNR is mapped to RINEX snr flag value [0-9]                COMMENT
  L1 & L2: min(max(int(snr_dBHz/6), 0), 9)                  COMMENT
pseudorange smoothing corrections not applied               COMMENT
clockShift applied 466.79 L1, 478.44 L2 (ns)                COMMENT
  2016    11    15     0     0    0.0000000     GPS         TIME OF FIRST OBS
                                                            END OF HEADER
 16 11 15  0  0  0.0000000  0 10G14G22G01G11G03G31G25G32G12G10
 -20776034.97447 -15910681.98047  20844042.2874   20844040.8544   20844042.778
        47.2004         44.4004
 -15085684.53847 -11310472.16846  22135751.3134   22135749.5274   22135753.032
        44.1004         41.4004
 -12172021.13547  -9463341.42346  22032951.5594   22032953.7164   22032951.172
        43.7004         40.9004
  -5299361.48546  -3891850.90346  23411560.6694   23411559.2534   23411560.672
        38.7004         36.4004
  -9509478.59046  -7162133.95546  23505608.9204   23505610.9494   23505608.176
        39.6004         37.1004
 -24724870.78648 -19253659.01147  20102867.7904   20102865.8424   20102867.483
        50.2004         47.2004
  -5398663.76446  -4196868.47946  23247244.0274   23247246.1444   23247245.442
        39.2004         36.7004
 -13623960.47847 -10600861.83647  21839497.2754   21839498.8494   21839497.031
        45.8004         43.0004
  -2036521.75746  -1574499.92845  24759787.2364   24759782.9714   24759787.186
        36.4004         34.8004
 -10343359.83746  -8036490.65146  22978559.2094   22978561.2144   22978559.317
        41.8004         39.0004
 16 11 15  0  0 30.0000000  0 11G14G22G01G11G03G23G31G25G32G12G10
 -20755207.51147 -15894452.77747  20848005.6164   20848004.8484   20848005.982
        47.2004         44.4004
 -15163368.50847 -11371005.10546  22120969.3374   22120966.6124   22120970.313
        44.2004         41.2004
 -12169907.21247  -9461694.21146  22033354.7104   22033354.8224   22033353.568
        43.9004         40.9004
  -5240311.42746  -3845837.88846  23422796.9404   23422795.7794   23422797.629
        38.5004         36.0004
  -9605058.45546  -7236611.73646  23487420.2874   23487421.9344   23487419.813
        39.6004         36.9004
   -310908.99344    -14252.757            .000    25813752.539        -139.940
        26.4004          1.500
 -24738577.04848 -19264339.19747  20100259.2954   20100257.6754   20100259.230
        50.2004         47.2004
  -5403978.83546  -4201010.04446  23246234.1934   23246235.9604   23246234.011
        39.2004         36.9004
 -13565730.64547 -10555487.92947  21850578.2984   21850579.9944   21850577.843
        45.8004         42.8004
  -1986996.75746  -1535908.98445  24769209.0584   24769209.5084   24769209.296
        36.3004         34.8004
 -10253675.81946  -7966607.03146  22995626.5614   22995627.5784   22995625.585
        41.6004         39.0004
 16 11 15  0  1  0.0000000  0 11G14G22G01G11G03G23G31G25G32G12G10
 -20734176.45947 -15878064.92947  20852007.6304   20852006.6104   20852008.008
        47.4004         44.4004
 -15240840.92247 -11431373.20146  22106227.0124   22106223.9284   22106227.779
        44.2004         41.4004
 -12167202.41347  -9459586.56046  22033868.4874   22033870.7364   22033868.296
        44.1004         41.2004
  -5180887.91446  -3799533.86545  23434106.2354   23434102.8834   23434105.166
        38.3004         35.9004
  -9700541.46446  -7311014.04946  23469250.6214   23469252.5554   23469250.041
        39.4004         37.1004
   -388996.87444    -83220.110 2          .000    25796958.190        -139.940
        26.4004         14.000
 -24751700.50548 -19274565.25147  20097762.0564   20097760.2814   20097761.726
        50.2004         47.0004
  -5408706.57046  -4204693.95646  23245334.7344   23245336.1774   23245334.748
        39.4004         37.1004
 -13507353.43447 -10509999.17847  21861687.2824   21861688.2554   21861686.501
        45.6004         42.8004
  -1936953.50945  -1496914.23045  24778730.7354   24778723.7764   24778729.038
        35.2004         32.9004
 -10163735.71446  -7896523.84746  23012741.0204   23012743.3944   23012740.600
        41.6004         38.8004
 16 11 15  0  1 30.0000000  0 11G14G22G01G11G03G23G31G25G32G12G10
 -20712941.97647 -15861518.56447  20856048.3704   20856047.5654   20856048.857
        47.4004         44.4004
 -15318099.75547 -11491574.86346  22091525.2184   22091522.3414   22091526.064
        44.4004         41.6004
 -12163907.12747  -9457018.79446  22034495.4604   22034497.6694   22034495.607
        44.1004         41.2004
  -5121094.13846  -3752941.32046  23445483.6554   23445482.4224   23445483.795
        38.5004         36.2004
  -9795925.70846  -7385339.40246  23451099.3174   23451100.7044   23451099.061
        39.4004         36.7004
   -467071.10044   -153191.006 2          .000    25779861.287        -139.940
        26.4004         15.400
 -24764241.34448 -19284337.32147  20095375.5944   20095373.6994   20095375.336
        50.2004         47.2004
  -5412846.13946  -4207919.56046  23244546.7384   23244549.1824   23244546.738
        39.6004         37.3004
 -13448829.39947 -10464396.02747  21872823.4224   21872825.2464   21872823.147
        45.6004         42.6004
  -1886393.98445  -1457517.15045  24788343.2144   24788348.6504   24788346.002
        34.9004         32.2004
 -10073540.75646  -7826242.09846  23029904.1454   23029907.9514   23029904.072
        41.3004         38.6004
 16 11 15  0  2  0.0000000  0 10G14G22G01G11G03G31G25G32G12G10
 -20691504.87147 -15844814.30947  20860127.6854   20860126.8074   20860128.224
        47.4004         44.4004
 -15395142.97647 -11551608.51946  22076864.5534   22076862.0084   22076864.971
        44.4004         41.6004
 -12160021.80747  -9453991.26646  22035233.7124   22035236.6504   22035234.779
        44.1004         41.2004
  -5060933.07546  -3706062.58246  23456931.0524   23456930.1604   23456932.102
        38.5004         36.0004
  -9891209.25246  -7459586.29346  23432967.4064   23432969.1184   23432966.763
        39.2004         36.7004
 -24776199.97348 -19293655.71447  20093099.8484   20093098.0004   20093099.703
        50.2004         47.2004
  -5416396.78646  -4210686.27346  23243871.3094   23243873.7414   23243870.863
        39.7004         37.4004
 -13390159.08947 -10418678.88147  21883988.4114   21883989.7414   21883987.714
        45.5004         42.5004
  -1835319.76645  -1417718.98545  24798069.3994   24798069.3594   24798070.249
        34.7004         33.1004
  -9983092.12546  -7755762.67646  23047115.9244   23047118.5914   23047115.602
        41.1004         38.3004
 16 11 15  0  2 30.0000000  0 10G14G22G01G11G03G31G25G32G12G10
 -20669865.65547 -15827952.56847  20864245.4374   20864244.7884   20864245.956
        47.4004         44.4004
 -15471968.39147 -11611472.45946  22062245.0634   22062242.8354   22062245.341
        44.6004         41.6004
 -12155546.89147  -9450504.31246  22036086.2484   22036088.5104   22036086.157
        44.2004         41.2004
  -5000407.33146  -3658899.67846  23468448.8064   23468448.7594   23468449.629
        38.5004         36.0004
  -9986390.13346  -7533753.18746  23414854.8204   23414856.6004   23414854.480
        39.0004         36.6004
 -24787576.27848 -19302520.34747  20090935.0844   20090933.3294   20090934.899
        50.2004         47.2004
  -5419357.82046  -4212993.54946  23243307.4394   23243308.2614   23243307.587
        39.7004         37.3004
 -13331343.07147 -10372848.20347  21895180.5624   21895181.8984   21895179.959
        45.3004         42.5004
  -1783731.95345  -1377520.80545  24807892.5254   24807872.7244   24807890.460
        34.3004         32.4004
  -9892391.03546  -7685086.52746  23064375.3334   23064378.5754   23064375.193
        40.8004         38.1004
 16 11 15  0  3  0.0000000  0 11G14G22G01G11G03G23G31G25G32G12G10
 -20648024.90847 -15810933.78947  20868401.4224   20868400.8204   20868402.168
        47.2004         44.4004
 -15548574.28447 -11671165.34946  22047667.2954   22047665.1074   22047667.554
        44.6004         41.8004
 -12150482.91147  -9446558.35446  22037049.9094   22037052.0924   22037049.412
        44.1004         41.4004
  -4939519.84546  -3611454.89246  23480036.3054   23480035.9964   23480035.980
        38.3004         36.2004
 -10081466.40446  -7607838.56346  23396761.9074   23396763.8144   23396761.886
        38.9004         36.6004
    -17618.73044      -587.333            .000            .000        -139.940
        26.4004           .000
 -24798371.36948 -19310932.09147  20088880.7004   20088878.9964   20088880.579
        50.2004         47.2004
  -5421728.52846  -4214840.81946  23242854.7994   23242857.1594   23242856.063
        39.6004         36.9004
 -13272381.83547 -10326904.37347  21906400.9184   21906401.5514   21906399.930
        45.3004         42.3004
  -1731632.32045  -1336923.63945  24817805.3214   24817803.1484   24817804.100
        35.7004         34.6004
  -9801438.68046  -7614214.59446  23081683.3454   23081686.2154   23081682.638
        40.6004         37.9004
 16 11 15  0  3 30.0000000  0 11G14G22G01G11G03G23G31G25G32G12G10
 -20625983.01147 -15793758.27547  20872595.9094   20872594.8724   20872596.350
        47.2004         44.4004
 -15624958.36047 -11730685.39546  22033132.0664   22033129.7904   22033132.270
        44.6004         41.8004
 -12144830.34847  -9442153.75246  22038125.1904   22038127.5514   22038124.838
        44.1004         41.2004
  -4878273.42746  -3563730.41246  23491691.7514   23491689.6054   23491691.093
        38.5004         36.0004
 -10176436.09946  -7681840.89346  23378690.4574   23378692.4044   23378689.721
        38.9004         36.4004
    -95639.13144      -587.333            .000            .000        -139.940
        26.4004           .000
 -24808585.68448 -19318891.28047  20086936.7954   20086935.2764   20086936.812
        50.2004         47.0004
  -5423508.13946  -4216227.49846  23242517.0014   23242518.2084   23242517.537
        39.4004         36.9004
 -13213275.94347 -10280847.81947  21917647.3154   21917649.5384   21917647.511
        45.3004         42.3004
  -1679022.60046  -1295929.02445  24827814.0234   24827813.8104   24827813.680
        36.1004         34.8004
  -9710236.30246  -7543147.82646  23099037.8244   23099041.4204   23099037.859
        40.4004         37.9004
 16 11 15  0  4  0.0000000  0 12G14G22G01G11G03G23G31G25G32G12G26G10
 -20603740.60447 -15776426.51347  20876828.5874   20876827.8284   20876828.908
        47.2004         44.4004
 -15701118.47347 -11790030.92446  22018638.5984   22018636.6664   22018639.677
        44.8004         41.9004
 -12138589.79647  -9437290.98946  22039313.0944   22039315.4414   22039312.413
        44.1004         41.4004
  -4816670.57946  -3515728.20146  23503413.7714   23503412.1544   23503414.047
        38.3004         36.0004
 -10271297.26746  -7755758.65546  23360637.6174   23360640.5234   23360637.737
        38.9004         36.6004
   -173645.77544      -587.333            .000            .000        -139.940
        26.4004           .000
 -24818219.22748 -19326397.92247  20085103.7814   20085101.8894   20085103.496
        50.2004         47.2004
  -5424696.10746  -4217153.16546  23242291.2544   23242293.2864   23242291.015
        39.4004         36.9004
 -13154025.88147 -10234678.93447  21928922.5804   21928924.4974   21928922.274
        45.1004         42.1004
  -1625904.42546  -1254538.26745  24837922.3314   24837918.9904   24837921.657
        36.1004         34.1004
    -24216.08544     -6393.82743          .000            .000    24573784.298
        26.4004         23.4004
  -9618785.09546  -7471887.18446  23116440.6814   23116443.4054   23116441.227
        40.4004         37.9004
 16 11 15  0  4 30.0000000  0 11G14G22G01G11G03G31G25G32G12G26G10
 -20581298.26547 -15758938.96747  20881099.4114   20881098.2024   20881099.666
        47.2004         44.4004
 -15777052.82047 -11849200.52946  22004188.9114   22004186.9274   22004189.830
        44.8004         41.9004
 -12131761.77647  -9431970.44846  22040612.4364   22040614.5894   22040611.948
        44.1004         41.1004
  -4754715.02646  -3467451.16846  23515204.0914   23515200.8054   23515203.622
        38.2004         36.0004
 -10366047.87446  -7829590.28346  23342608.3764   23342610.0254   23342607.643
        39.0004         36.7004
 -24827272.69648 -19333452.56347  20083380.9614   20083379.2384   20083380.630
        50.2004         47.2004
  -5425291.75846  -4217617.28046  23242177.8764   23242179.8484   23242178.206
        39.2004         36.7004
 -13094632.21647 -10188398.15146  21940225.0534   21940226.6214   21940224.537
        44.9004         41.9004
  -1572279.73046  -1212752.75245  24848125.7784   24848125.0894   24848126.666
        36.3004         34.5004
   -124418.24944    -83171.644 3          .000    24555040.306        -139.940
        26.4004         18.900
  -9527086.35746  -7400433.64546  23133890.9874   23133892.9574   23133890.791
        40.6004         38.1004
 16 11 15  0  5  0.0000000  0 12G14G22G01G11G03G23G31G25G32G12G26G10
 -20558656.56447 -15741296.06947  20885407.4914   20885407.3354   20885408.184
        47.2004         44.4004
 -15852759.04447 -11908192.37247  21989782.0334   21989780.9894   21989783.510
        44.9004         42.1004
 -12124346.91347  -9426192.63146  22042023.5374   22042025.9234   22042022.987
        44.1004         41.1004
  -4692409.22246  -3418901.21745  23527059.4214   23527060.3234   23527059.766
        38.0004         35.9004
 -10460686.00246  -7903334.24846  23324599.2804   23324601.1074   23324598.887
        39.2004         36.9004
    -84306.65544    -53685.95044          .000            .000    25674458.251
        26.4004         24.9004
 -24835746.45748 -19340055.47747  20081768.2924   20081766.5994   20081768.172
        50.2004         47.2004
  -5425294.56746  -4217619.42846  23242177.2394   23242179.3834   23242177.309
        39.2004         36.7004
 -13035095.43147 -10142005.84346  21951554.6844   21951556.1794   21951553.899
        44.9004         41.9004
  -1518150.03446  -1170573.80345  24858428.2234   24858425.8194   24858427.580
        36.3004         34.3004
   -224643.56144   -158665.354 3          .000    24536602.837        -139.940
        27.2004         21.700
  -9435141.29346  -7328788.17446  23151387.2774   23151389.5214   23151387.669
        40.6004         37.9004
 16 11 15  0  5 30.0000000  0 12G14G22G01G11G03G23G31G25G32G12G26G10
 -20535816.04747 -15723498.24947  20889754.1554   20889753.3124   20889754.582
        47.2004         44.2004
 -15928235.10247 -11967004.85847  21975420.0504   21975418.0064   21975421.096
        44.9004         42.1004
 -12116345.80347  -9419957.98546  22043546.4324   22043547.7834   22043545.845
        43.9004         40.9004
  -4629756.09546  -3370080.60545  23538982.7174   23538981.0364   23538982.069
        38.2004         35.9004
 -10555209.59746  -7976988.97746  23306612.1754   23306613.6624   23306611.354
        39.6004         37.3004
   -162272.97344   -110388.529 2          .000    25660606.366        -139.940
        26.4004         16.800
 -24843641.08148 -19346207.11447  20080266.1744   20080264.4984   20080266.018
        50.2004         47.2004
  -5424703.81846  -4217159.09046  23242288.3274   23242292.2614   23242289.655
        39.2004         36.9004
 -12975416.02847 -10095502.39547  21962911.3954   21962913.0004   21962910.823
        44.9004         42.1004
  -1463516.76445  -1128002.39845  24868821.7454   24868821.0034   24868822.272
        35.6004         33.8004
   -324889.10045   -240684.04245  24516566.7254   24516570.3834   24516566.688
        35.7004         34.6004
  -9342951.15446  -7256951.70046  23168931.6184   23168932.6744   23168930.761
        40.4004         37.8004
 16 11 15  0  6  0.0000000  0 12G14G22G01G11G03G23G31G25G32G12G26G10
 -20512777.17147 -15705545.86547  20894138.3974   20894137.4354   20894138.769
        47.2004         44.2004
 -16003479.17147 -12025636.58246  21961101.9474   21961098.6484   21961102.802
        44.9004         41.9004
 -12107759.12347  -9413267.05746  22045179.9404   22045181.9494   22045180.159
        43.9004         41.2004
  -4566758.79246  -3320991.80845  23550969.9944   23550967.4934   23550970.526
        38.2004         35.7004
 -10649616.68646  -8050552.92446  23288646.8394   23288648.4404   23288646.612
        39.7004         37.4004
   -240225.75844   -175180.85145          .000    25644782.5324   25644787.112
        28.8004         31.9004
 -24850957.07848 -19351907.87747  20078873.9564   20078872.3094   20078873.669
        50.2004         47.2004
  -5423519.05946  -4216235.87546  23242514.7644   23242516.5694   23242514.706
        39.4004         36.9004
 -12915594.51847 -10048888.21547  21974295.1294   21974296.4464   21974294.412
        44.9004         42.1004
  -1408382.44845  -1085040.57745  24879313.7234   24879314.3774   24879314.116
        34.9004         33.4004
   -425151.94846   -318810.85845  24497487.6334   24497493.7224   24497487.725
        36.8004         34.8004
  -9250517.21746  -7184925.29846  23186520.1324   23186522.8884   23186520.555
        40.4004         37.8004
 16 11 15  0  6 30.0000000  0 12G14G22G01G11G03G23G31G25G32G12G26G10
 -20489540.46947 -15687439.32647  20898560.0244   20898559.0324   20898560.595
        47.2004         44.2004
 -16078489.17047 -12084085.89746  21946827.9734   21946825.2784   21946828.771
        44.9004         41.8004
 -12098587.53347  -9406120.35446  22046925.9364   22046926.7824   22046925.183
        43.9004         41.1004
  -4503420.05446  -3271636.96945  23563023.2074   23563022.7384   23563023.184
        38.2004         35.9004
 -10743905.24446  -8124024.49246  23270704.4144   23270706.3954   23270704.230
        39.9004         37.6004
   -318165.16245   -235912.74945          .000    25629953.5134   25629954.532
        33.7004         32.7004
 -24857694.89948 -19357158.11147  20077591.7814   20077590.0034   20077591.444
        50.2004         47.2004
  -5421739.75846  -4214849.37646  23242853.4594   23242855.8804   23242853.554
        39.4004         37.1004
 -12855631.42147 -10002163.70947  21985706.0234   21985707.3224   21985705.216
        45.1004         42.1004
  -1352748.11945  -1041689.15245  24889901.2384   24889902.8204   24889900.514
        34.9004         32.7004
   -525429.26546   -396948.91245  24478402.2194   24478409.8434   24478404.528
        36.4004         34.5004
  -9157840.73646  -7112709.87646  23204155.7154   23204159.0444   23204156.073
        40.4004         37.8004
 16 11 15  0  7  0.0000000  0 12G14G22G01G11G03G23G31G25G32G12G26G10
 -20466106.17747 -15669178.82847  20903019.2334   20903018.8244   20903019.974
        47.2004         44.2004
 -16153262.79347 -12142351.03146  21932597.9714   21932596.2654   21932599.286
        44.8004         41.6004
 -12088831.72747  -9398518.40846  22048781.9414   22048783.7524   22048781.304
        43.9004         41.1004
  -4439742.72846  -3222018.28546  23575140.2724   23575140.4444   23575140.446
        38.2004         36.0004
 -10838073.24446  -8197402.13446  23252784.9074   23252787.0494   23252784.796
        40.1004         37.6004
   -396091.29045   -296634.19545  25615125.7984   25615123.5154   25615125.178
        35.2004         33.8004
 -24863855.11648 -19361958.26547  20076419.5384   20076417.8994   20076419.240
        50.2004         47.2004
  -5419365.39646  -4212999.19346  23243305.2474   23243306.4254   23243305.781
        39.6004         37.3004
 -12795527.21847  -9955329.25847  21997142.7504   21997144.9954   21997142.395
        45.1004         42.1004
  -1296615.50845   -997949.34645  24900582.5774   24900581.5324   24900583.630
        35.0004         33.6004
   -625718.23646   -475096.04845  24459321.7054   24459324.7864   24459320.490
        36.3004         34.1004
  -9064923.01646  -7040306.49146  23221837.9794   23221840.4234   23221837.729
        40.4004         37.8004
 16 11 15  0  7 30.0000000  0 12G14G22G01G11G03G23G31G25G32G12G26G10
 -20442475.23347 -15650765.08947  20907516.4964   20907515.5454   20907516.652
        47.0004         44.2004
 -16227798.26447 -12200430.57846  21918415.0554   21918412.0574   21918415.364
        44.6004         41.6004
 -12078492.42047  -9390461.78046  22050749.1814   22050752.0174   22050748.598
        43.9004         41.1004
  -4375729.94246  -3172138.21145  23587321.8574   23587321.2374   23587321.303
        38.0004         35.9004
 -10932118.70246  -8270684.28546  23234888.7294   23234890.6084   23234888.490
        40.3004         37.6004
   -474004.08346   -357345.30045  25600298.5624   25600298.1414   25600299.120
        36.3004         34.6004
 -24869438.33848 -19366308.81047  20075357.0004   20075355.3244   20075356.710
        50.2004         47.2004
  -5416395.53846  -4210684.99046  23243870.4984   23243872.2044   23243870.975
        39.7004         37.4004
 -12735282.35547  -9908385.19147  22008607.0864   22008608.6834   22008606.705
        45.1004         42.1004
  -1239986.38245   -953822.74045  24911359.6814   24911355.1804   24911358.782
        35.2004         33.8004
   -726015.84345   -553249.97545  24440234.7484   24440238.8474   24440234.184
        35.9004         34.1004
  -8971765.29346  -6967716.08946  23239565.7114   23239568.2084   23239565.438
        40.4004         37.6004
 16 11 15  0  8  0.0000000  0 12G14G22G01G11G03G23G31G25G32G12G26G10
 -20418647.88047 -15632198.31347  20912050.3394   20912049.4474   20912050.779
        47.0004         44.0004
 -16302093.20047 -12258322.71246  21904276.6484   21904273.8074   21904277.346
        44.4004         41.4004
 -12067570.38047  -9381951.08746  22052827.5554   22052829.0944   22052827.337
        43.9004         41.1004
  -4311384.71446  -3121999.06545  23599565.5614   23599565.7254   23599565.925
        38.2004         35.9004
 -11026039.56046  -8343869.34246  23217016.7234   23217017.9844   23217016.163
        40.3004         37.6004
   -551903.84946   -418046.24845  25585474.6384   25585473.1704   25585475.151
        36.8004         35.0004
 -24874445.58348 -19370210.54747  20074404.2004   20074402.3474   20074403.884
        50.2004         47.2004
  -5412829.75146  -4207906.42446  23244547.9884   23244551.0064   23244549.173
        39.7004         37.3004
 -12674897.37547  -9861331.95247  22020098.2724   22020099.0274   22020097.713
        45.1004         42.1004
  -1182862.91246   -909310.95645  24922228.3814   24922229.7214   24922228.957
        36.3004         34.6004
   -826319.39945   -631408.48245  24421146.6754   24421154.3034   24421145.494
        35.6004         33.6004
  -8878368.88146  -6894939.70346  23257338.0694   23257339.6644   23257338.075
        40.3004         37.4004
 16 11 15  0  8 30.0000000  0 12G14G22G01G11G03G23G31G25G32G12G26G10
 -20394624.74247 -15613478.97147  20916621.4984   20916621.1704   20916622.209
        47.0004         44.0004
 -16376145.57847 -12316025.84046  21890184.6784   21890182.6214   21890185.500
        44.4004         41.6004
 -12056066.36747  -9372986.91846  22055016.5254   22055018.7764   22055016.283
        43.9004         41.1004
  -4246709.70246  -3071602.97345  23611872.6374   23611871.4444   23611873.451
        38.0004         35.7004
 -11119833.74846  -8416955.70446  23199168.6744   23199169.4814   23199167.924
        40.4004         37.8004
   -629790.54746   -478737.00445  25570653.7434   25570653.0894   25570653.745
        37.3004         35.5004
 -24878877.02848 -19373663.60447  20073560.8284   20073559.1314   20073560.675
        50.2004         47.2004
  -5408667.61946  -4204663.17846  23245340.7804   23245343.4024   23245341.236
        39.7004         37.3004
 -12614372.74947  -9814169.89647  22031616.1564   22031616.1474   22031615.135
        45.1004         42.3004
  -1125247.06546   -864415.42645  24933193.5764   24933193.0734   24933193.039
        36.1004         34.5004
   -926625.85045   -709569.25445  24402060.0244   24402065.2404   24402058.763
        35.7004         34.1004
  -8784735.05746  -6821978.31046  23275155.9984   23275158.6464   23275156.173
        40.1004         37.6004
 16 11 15  0  9  0.0000000  0 12G14G22G01G11G03G23G31G25G32G12G26G10
 -20370406.28847 -15594607.43547  20921230.6624   20921229.8674   20921230.644
        46.9004         44.0004
 -16449953.38347 -12373538.39246  21876140.0004   21876137.6834   21876140.615
        44.6004         41.6004
 -12043981.19047  -9363569.88546  22057315.7014   22057318.5114   22057316.034
        43.9004         41.1004
  -4181708.04846  -3020952.35446  23624243.8814   23624242.4714   23624243.096
        38.2004         36.0004
 -11213499.25746  -8489941.79146  23181343.9144   23181345.6994   23181343.570
        40.4004         37.8004
   -707663.90746   -539417.38145  25555835.3334   25555833.3654   25555835.079
        37.6004         35.3004
 -24882733.43248 -19376668.57647  20072827.3224   20072825.2844   20072827.047
        50.2004         47.3004
  -5403908.74646  -4200954.93446  23246247.0814   23246248.6464   23246246.563
        39.9004         37.6004
 -12553708.91647  -9766899.35947  22043159.5014   22043160.8004   22043159.039
        45.1004         42.1004
  -1067139.93645   -819137.15045  24944250.8544   24944249.7514   24944249.088
        35.0004         32.9004
  -1026932.32446   -787730.08145  24382971.0244   24382977.5394   24382971.746
        36.1004         34.5004
  -8690865.16346  -6748832.96146  23293019.9424   23293021.1194   23293018.749
        40.1004         37.4004
 16 11 15  0  9 30.0000000  0 12G14G22G01G11G03G23G31G25G32G12G26G10
 -20345993.15247 -15575584.20047  20925875.9104   20925875.4684   20925876.490
        46.9004         43.9004
 -16523514.48447 -12430858.70847  21862142.3124   21862139.6354   21862142.712
        44.8004         42.1004
 -12031315.65447  -9353700.63046  22059726.4404   22059729.2714   22059726.211
        43.7004         40.9004
  -4116382.92146  -2970049.66145  23636674.5184   23636672.0574   23636673.878
        38.2004         35.7004
 -11307033.98646  -8562825.97246  23163545.5884   23163546.7984   23163544.751
        40.4004         37.9004
   -785524.18846   -600087.59445  25541018.9664   25541016.1454   25541018.963
        37.6004         35.5004
 -24886015.32948 -19379225.87847  20072202.7584   20072200.6274   20072202.649
        50.3004         47.3004
  -5398552.79846  -4196781.43546  23247266.1014   23247267.3594   23247266.222
        39.9004         37.4004
 -12492906.37447  -9719520.73647  22054729.8974   22054730.6794   22054729.194
        45.1004         42.3004
  -1008544.08345   -773478.07245  24955397.7144   24955402.1224   24955400.531
        35.4004         33.6004
  -1127235.92646   -865888.65545  24363885.3074   24363891.1234   24363884.652
        36.1004         34.1004
  -8596760.46846  -6675504.65646  23310925.7714   23310928.8944   23310926.053
        39.7004         37.3004
 16 11 15  0 10  0.0000000  0 12G14G22G01G11G03G23G31G25G32G12G26G10
 -20321385.52947 -15556409.42047  20930558.8154   20930557.7244   20930559.137
        46.9004         43.9004
 -16596826.72347 -12487985.11247  21848190.9924   21848188.4044   21848192.017
        45.1004         42.1004
 -12018070.61147  -9343379.81346  22062246.8324   22062249.4914   22062246.542
        43.9004         40.9004
  -4050736.86846  -2918896.90145  23649166.3124   23649165.4764   23649165.676
        38.0004         35.7004
 -11400435.89846  -8635606.65846  23145771.6864   23145772.7594   23145770.603
        40.4004         37.9004
   -863371.50546   -660747.70945  25526203.4334   25526203.7574   25526204.526
        37.6004         35.3004
 -24888723.65748 -19381336.24347  20071687.2564   20071685.4544   20071687.052
        50.3004         47.3004
  -5392599.46246  -4192142.44946  23248399.0424   23248400.5704   23248399.172
        40.1004         37.4004
 -12431965.57747  -9672034.38747  22066326.9234   22066327.3524   22066326.265
        45.1004         42.3004
   -949461.48945   -727439.64445  24966641.7144   24966640.3724   24966643.281
        34.7004         33.3004
  -1227533.73746   -944042.74545  24344798.8854   24344802.8364   24344798.469
        36.6004         34.8004
  -8502422.33946  -6601994.44646  23328878.0864   23328881.1174   23328877.342
        39.7004         37.3004
 16 11 15  0 10 30.0000000  0 12G14G22G01G11G03G23G31G25G32G12G26G10
 -20296583.99747 -15537083.54147  20935278.4984   20935277.3014   20935278.834
        46.9004         43.9004
 -16669887.96747 -12544915.92247  21834287.9234   21834285.8634   21834289.039
        45.3004         42.3004
 -12004246.97647  -9332608.13446  22064876.8194   22064881.0744   22064877.260
        43.9004         41.2004
  -3984773.42046  -2867496.81845  23661718.1894   23661718.1434   23661718.224
        37.8004         35.5004
 -11493702.89846  -8708282.21646  23128023.6374   23128024.8584   23128022.515
        40.6004         37.9004
   -941205.91546   -721397.78445  25511392.9004   25511391.5244   25511393.073
        37.5004         35.2004
 -24890858.96748 -19383000.10047  20071280.6524   20071279.0774   20071280.432
        50.2004         47.2004
  -5386048.39746  -4187037.68046  23249646.0314   23249647.4174   23249645.426
        39.9004         37.4004
 -12370886.98947  -9624440.66847  22077949.4544   22077950.1774   22077949.029
        45.1004         42.3004
   -889893.72445   -681023.22345  24977975.9314   24977978.4924   24977978.261
        34.3004         32.7004
  -1327822.82146  -1022189.99945  24325713.4914   24325719.0164   24325713.828
        36.8004         34.6004
  -8407852.08846  -6528303.36046  23346873.5534   23346876.9144   23346873.270
        39.6004         36.9004
 16 11 15  0 11  0.0000000  0 12G14G22G01G11G03G23G31G25G32G12G26G10
 -20271589.02747 -15517606.92847  20940035.0584   20940033.4814   20940035.233
        46.9004         43.9004
 -16742696.02447 -12601649.45147  21820433.1914   21820431.0754   21820433.919
        45.3004         42.5004
 -11989845.62247  -9321386.29846  22067618.1944   22067620.3994   22067617.656
        44.1004         41.2004
  -3918495.08246  -2815851.38745  23674330.3234   23674330.1334   23674330.672
        38.0004         35.9004
 -11586832.90646  -8780851.02646  23110301.3144   23110302.5194   23110300.878
        40.6004         38.1004
  -1019027.26046   -782037.68845  25496583.0914   25496581.9914   25496583.487
        37.0004         34.6004
 -24892422.04748 -19384218.06247  20070983.2644   20070981.5824   20070982.877
        50.2004         47.2004
  -5378899.32046  -4181466.93946  23251005.4474   23251007.3424   23251005.490
        39.9004         37.4004
 -12309671.06647  -9576739.93747  22089598.7964   22089599.4834   22089598.372
        45.1004         42.3004
   -829842.37345   -634229.88145  24989406.6714   24989403.6394   24989406.536
        34.7004         33.6004
  -1428100.25446  -1100328.15645  24306632.6134   24306636.2214   24306631.746
        36.6004         34.8004
  -8313051.05046  -6454432.45346  23364914.0154   23364917.8534   23364913.553
        39.6004         36.9004
 16 11 15  0 11 30.0000000  0 12G14G22G01G11G03G23G31G25G32G12G26G10
 -20246401.17847 -15497980.01747  20944827.7224   20944826.6104   20944828.340
        46.9004         43.9004
 -16815249.06347 -12658184.26547  21806627.0254   21806623.6804   21806627.541
        45.3004         42.3004
 -11974867.46147  -9309714.99246  22070467.8524   22070470.8234   22070467.945
        43.9004         40.9004
  -3851904.83846  -2763962.87345  23687002.1524   23687002.3824   23687002.331
        37.8004         35.7004
 -11679823.86846  -8853311.48746  23092605.2154   23092607.1514   23092604.830
        40.8004         38.3004
  -1096835.53146   -842667.35845  25481778.6934   25481775.9064   25481776.901
        36.3004         34.1004
 -24893413.88248 -19384990.89547  20070794.4394   20070792.7414   20070794.192
        50.2004         47.2004
  -5371152.05646  -4175430.08046  23252479.8444   23252481.8764   23252480.032
        39.9004         37.3004
 -12248318.25347  -9528932.53847  22101273.3694   22101274.1564   22101273.138
        45.3004         42.3004
   -769309.28345   -587061.20845  25000926.3944   25000922.6344   25000924.766
        33.8004         32.4004
  -1528363.08846  -1178454.99645  24287553.7084   24287558.2824   24287552.250
        37.1004         35.3004
  -8218020.55246  -6380382.75646  23382998.5104   23383000.8734   23382997.887
        39.6004         37.3004
 16 11 15  0 12  0.0000000  0 12G14G22G01G11G03G23G31G25G32G12G26G10
 -20221020.89847 -15478203.16447  20949657.9084   20949656.7374   20949657.915
        46.9004         43.7004
 -16887544.82247 -12714518.59847  21792869.4034   21792867.0734   21792870.046
        45.5004         42.5004
 -11959313.45247  -9297594.97246  22073427.5524   22073429.6444   22073427.937
        43.9004         41.1004
  -3785006.20846  -2711834.08645  23699732.5064   23699731.5784   23699733.019
        38.0004         35.5004
 -11772673.62546  -8925661.90846  23074936.8244   23074938.8704   23074936.906
        40.9004         38.5004
  -1174630.96445   -903287.07045  25466973.3304   25466970.4104   25466972.560
        35.7004         33.6004
 -24893835.01148 -19385319.02647  20070714.3434   20070712.5264   20070714.126
        50.2004         47.2004
  -5362806.29746  -4168926.86346  23254067.4884   23254070.1204   23254068.301
        39.7004         37.3004
 -12186829.01147  -9481018.83847  22112974.4534   22112975.5284   22112974.110
        45.1004         42.3004
   -708296.98745   -539519.10745  25012537.6554   25012530.6804   25012536.672
        33.8004         32.6004
  -1628608.39646  -1256568.16545  24268475.6014   24268481.3664   24268476.036
        37.6004         35.7004
  -8122761.96146  -6306155.32446  23401125.3304   23401127.5754   23401125.487
        39.7004         37.3004
 16 11 15  0 12 30.0000000  0 12G14G22G01G11G03G23G31G25G32G12G26G10
 -20195448.54647 -15458276.64547  20954523.9244   20954523.0074   20954524.222
        46.7004         43.9004
 -16959581.18647 -12770650.81247  21779161.2664   21779158.8474   21779161.993
        45.5004         42.5004
 -11943184.57647  -9285027.00846  22076496.8554   22076498.8924   22076497.045
        43.9004         40.9004
  -3717801.92446  -2659467.12045  23712520.9694   23712519.3254   23712521.494
        38.0004         35.9004
 -11865380.11146  -8997900.70146  23057295.3704   23057297.3154   23057294.646
        41.1004         38.5004
  -1252413.40445   -963896.62045  25452169.0674   25452169.0364   25452170.951
        34.7004         32.9004
 -24893686.59048 -19385203.35047  20070742.8034   20070740.6884   20070742.424
        50.2004         47.2004
  -5353861.94246  -4161957.21246  23255770.8564   23255772.6004   23255770.479
        39.7004         37.1004
 -12125203.75947  -9432999.15247  22124701.2744   22124702.5254   22124701.101
        45.1004         42.1004
   -646807.92845   -491605.50745  25024236.9514   25024235.8704   25024237.565
        34.3004         33.1004
  -1728833.20246  -1334665.36345  24249404.6404   24249409.6534   24249404.800
        38.0004         35.9004
  -8027276.62246  -6231751.19246  23419296.0844   23419297.5704   23419295.681
        39.9004         37.4004
 16 11 15  0 13  0.0000000  0 12G14G22G01G11G03G23G31G25G32G12G26G10
 -20169684.87647 -15438201.04647  20959426.1404   20959425.5254   20959426.931
        46.7004         43.9004
 -17031355.94847 -12826579.17947  21765502.8984   21765499.8584   21765503.703
        45.5004         42.5004
 -11926481.85347  -9272011.89246  22079675.8294   22079677.5144   22079675.453
        43.9004         40.9004
  -3650294.92646  -2606864.28145  23725367.9804   23725367.0834   23725367.161
        37.8004         35.3004
 -11957941.23046  -9070026.20746  23039681.2834   23039683.6534   23039681.296
        41.1004         38.5004
  -1330182.74845  -1024495.98645  25437370.7524   25437365.4254   25437370.745
        34.3004         32.7004
 -24892969.16748 -19384644.29847  20070879.3214   20070877.3384   20070878.994
        50.2004         47.2004
  -5344318.73546  -4154520.92346  23257586.9294   23257587.4004   23257586.602
        39.7004         37.1004
 -12063442.92847  -9384873.82347  22136454.2904   22136454.3694   22136453.649
        45.1004         42.1004
   -584842.87945   -443321.06845  25036027.3704   25036026.6524   25036027.957
        34.0004         32.6004
  -1829034.56846  -1412744.33546  24230337.4754   24230342.4734   24230337.151
        38.5004         36.2004
  -7931565.92446  -6157171.46746  23437509.4544   23437511.4424   23437509.104
        39.9004         37.4004
 16 11 15  0 13 30.0000000  0 12G14G22G01G11G03G23G31G25G32G12G26G10
 -20143730.07547 -15417976.51347  20964365.5784   20964364.6394   20964365.989
        46.7004         43.7004
 -17102867.27747 -12882302.27547  21751894.7794   21751891.8024   21751895.679
        45.5004         42.5004
 -11909206.24447  -9258550.36446  22082962.8244   22082964.5394   22082962.750
        43.7004         40.9004
  -3582488.08046  -2554027.78845  23738270.5144   23738267.9734   23738270.160
        37.5004         35.2004
 -12050354.81846  -9142036.76246  23022096.1834   23022097.8884   23022095.469
        41.1004         38.5004
  -1407939.25145  -1085085.36945  25422576.4664   25422571.7044   25422575.612
        34.0004         32.6004
 -24891683.71948 -19383642.62847  20071123.7224   20071121.8844   20071123.660
        50.2004         47.3004
  -5334176.60246  -4146617.95246  23259516.5394   23259516.3724   23259516.290
        39.6004         36.9004
 -12001546.94947  -9336643.17447  22148232.4314   22148233.6544   22148231.787
        44.9004         42.1004
   -522404.61145   -394667.85545  25047910.7454   25047909.5744   25047910.044
        33.8004         32.6004
  -1929209.58346  -1490802.77346  24211274.1094   24211278.8084   24211274.525
        38.7004         36.6004
  -7835631.22846  -6082417.19446  23455764.6734   23455766.5054   23455765.344
        40.3004         37.8004
 16 11 15  0 14  0.0000000  0 12G14G22G01G11G03G23G31G25G32G12G26G10
 -20117584.43247 -15397603.26747  20969341.0004   20969339.9614   20969341.262
        46.7004         43.7004
 -17174112.96247 -12937818.36647  21738337.1174   21738333.9704   21738337.983
        45.5004         42.6004
 -11891358.85947  -9244643.29346  22086359.5704   22086361.2424   22086359.158
        43.7004         40.7004
  -3514384.55146  -2500960.11045  23751230.6264   23751229.1964   23751230.039
        37.5004         35.3004
 -12142618.78846  -9213930.72746  23004538.7014   23004540.2224   23004537.675
        41.1004         38.5004
  -1485682.95345  -1145664.78245  25407779.7854   25407782.0724   25407781.043
        33.8004         32.7004
 -24889830.94048 -19382198.87747  20071476.3834   20071474.3404   20071476.009
        50.2004         47.2004
  -5323435.38746  -4138248.15246  23261560.0884   23261561.6604   23261560.538
        39.6004         36.9004
 -11939516.26447  -9288307.56847  22160036.7414   22160037.7344   22160036.176
        44.9004         42.1004
   -459494.73645   -345647.12645  25059878.5574   25059880.3954   25059880.749
        34.2004         33.1004
  -2029355.24946  -1568838.36146  24192218.2774   24192221.7054   24192217.622
        39.0004         36.7004
  -7739473.87946  -6007489.42146  23474062.8904   23474065.2914   23474063.167
        40.3004         37.6004
 16 11 15  0 14 30.0000000  0 12G14G22G01G11G03G23G31G25G32G12G26G10
 -20091248.75047 -15377081.95047  20974352.2964   20974351.5794   20974352.791
        46.7004         43.9004
 -17245090.80747 -12993125.75547  21724830.3444   21724828.4014   21724831.520
        45.6004         42.8004
 -11872940.74647  -9230291.50146  22089864.5164   22089865.7884   22089863.743
        43.6004         40.6004
  -3445987.68946  -2447663.84745  23764244.9154   23764247.0284   23764245.348
        37.5004         35.3004
 -12234731.02646  -9285706.46446  22987010.0284   22987011.7834   22987009.549
        41.1004         38.6004
  -1563413.82645  -1206234.22845  25392988.5664   25392987.5684   25392990.042
        34.2004         33.3004
 -24887411.94648 -19380313.92347  20071936.7304   20071934.7564   20071936.517
        50.2004         47.2004
  -5312095.03846  -4129411.48846  23263717.1714   23263718.9584   23263718.206
        39.6004         37.1004
 -11877351.28447  -9239867.31047  22171865.7274   22171867.9034   22171865.546
        44.9004         42.1004
   -396115.25145   -296260.53445  25071943.0414   25071938.3744   25071942.573
        34.2004         32.9004
  -2129468.57346  -1646848.76646  24173166.9514   24173169.8744   24173166.698
        39.0004         36.6004
  -7643095.30646  -5932389.25646  23492404.7374   23492405.4804   23492403.614
        40.3004         37.8004
 16 11 15  0 15  0.0000000  0 12G14G22G01G11G03G23G31G25G32G12G26G10
 -20064723.49047 -15356412.90247  20979399.7844   20979398.9594   20979400.314
        46.7004         43.7004
 -17315798.55447 -13048222.67647  21711375.4274   21711372.4324   21711376.295
        45.8004         42.8004
 -11853953.00747  -9215495.85146  22093477.9804   22093479.2054   22093476.898
        43.4004         40.7004
  -3377300.19546  -2394141.14045  23777316.3344   23777314.6684   23777316.889
        37.5004         35.3004
 -12326689.33346  -9357362.24646  22969511.3514   22969512.5374   22969510.377
        41.3004         38.6004
  -1641131.80745  -1266793.62245  25378200.4454   25378198.9674   25378201.741
        34.5004         33.4004
 -24884427.53448 -19377988.38147  20072504.5234   20072502.7484   20072504.287
        50.2004         47.2004
  -5300155.52446  -4120107.94446  23265989.7564   23265991.7234   23265990.380
        39.4004         37.1004
 -11815052.43847  -9191322.74146  22183720.7364   22183722.1384   22183720.589
        44.9004         41.9004
   -332268.89645   -246510.11345  25084095.2604   25084089.7424   25084092.287
        34.2004         32.7004
  -2229546.62646  -1724831.69846  24154122.8724   24154126.5744   24154122.664
        39.0004         36.6004
  -7546496.88146  -5857117.77846  23510785.6194   23510787.6224   23510785.430
        40.1004         37.6004
 16 11 15  0 15 30.0000000  0 12G14G22G01G11G03G23G31G25G32G12G26G10
 -20038008.91547 -15335596.33347  20984483.4594   20984482.6594   20984483.831
        46.7004         43.7004
 -17386234.32947 -13103107.66947  21697971.6984   21697969.2324   21697972.812
        46.0004         43.0004
 -11834396.77347  -9200257.22146  22097198.8264   22097200.4224   22097198.171
        43.4004         40.6004
  -3308325.42646  -2340394.57945  23790442.5844   23790441.2084   23790442.450
        37.8004         35.7004
 -12418491.64446  -9428896.48146  22952041.3874   22952043.3184   22952041.004
        41.3004         38.6004
  -1718836.80245  -1327342.94345  25363413.3454   25363410.5264   25363414.890
        34.9004         33.8004
 -24880878.33548 -19375222.74647  20073179.7714   20073178.0294   20073179.767
        50.2004         47.2004
  -5287616.80946  -4110337.49446  23268376.0364   23268377.8314   23268376.331
        39.4004         36.9004
 -11752620.10047  -9142674.15946  22195601.3504   22195602.4034   22195601.077
        44.8004         41.8004
   -267956.78245   -196396.68245  25096328.3534   25096330.5854   25096329.559
        34.0004         32.6004
  -2329586.27546  -1802784.68846  24135085.8554   24135089.9004   24135086.123
        39.2004         36.7004
  -7449679.97746  -5781676.05546  23529208.9454   23529211.3894   23529208.987
        39.9004         37.4004
 16 11 15  0 16  0.0000000  0 11G14G22G01G11G03G23G31G25G32G26G10
 -20011105.53247 -15314632.64947  20989602.9444   20989602.3504   20989603.321
        46.7004         43.7004
 -17456396.00447 -13157779.08547  21684620.2084   21684617.9754   21684621.199
        46.0004         43.0004
 -11814273.15747  -9184576.47746  22101028.4004   22101029.9204   22101027.827
        43.4004         40.7004
  -3239066.15046  -2286426.31245  23803621.9054   23803621.6864   23803621.879
        38.0004         35.9004
 -12510135.70346  -9500307.40546  22934602.8174   22934604.2144   22934601.650
        41.3004         38.6004
  -1796529.20945  -1387882.44645  25348629.7834   25348627.9524   25348630.853
        35.6004         34.0004
 -24876765.90248 -19372018.23147  20073962.3994   20073960.6044   20073962.221
        50.2004         47.2004
  -5274478.84946  -4100100.09246  23270875.8434   23270878.1724   23270875.945
        39.4004         36.9004
 -11690054.74047  -9093921.91546  22207507.2344   22207508.4844   22207506.988
        44.8004         41.8004
  -2429584.63446  -1880705.47946  24116056.5744   24116060.6384   24116057.129
        38.9004         36.6004
  -7352646.00646  -5706065.16746  23547673.2374   23547675.9004   23547673.512
        39.7004         36.9004
 16 11 15  0 16 30.0000000  0 11G14G22G01G11G03G23G31G25G32G26G10
 -19984013.60847 -15293522.04847  20994758.2304   20994757.4934   20994758.660
        46.7004         43.7004
 -17526281.23647 -13212235.08647  21671321.6414   21671319.6564   21671322.370
        46.0004         43.0004
 -11793583.37047  -9168454.56346  22104964.9974   22104966.8394   22104964.988
        43.6004         40.7004
  -3169525.34146  -2232238.67845  23816855.1854   23816853.5724   23816855.391
        38.2004         35.9004
 -12601619.43346  -9571593.38946  22917193.6064   22917194.8294   22917192.903
        41.3004         38.8004
  -1874208.64546  -1448411.80945  25333846.7354   25333844.5454   25333847.844
        36.1004         34.1004
 -24872091.21748 -19368375.60047  20074852.0524   20074850.1234   20074851.872
        50.2004         47.2004
  -5260741.73846  -4089395.82646  23273489.1414   23273491.3594   23273490.108
        39.4004         36.9004
 -11627356.68947  -9045066.27646  22219438.1014   22219439.6524   22219438.256
        44.6004         41.8004
  -2529538.69146  -1958591.72946  24097036.2814   24097040.6634   24097036.657
        38.9004         36.6004
  -7255396.40846  -5630286.27346  23566179.6484   23566182.5534   23566179.499
        39.6004         37.3004
 16 11 15  0 17  0.0000000  0 11G14G22G01G11G03G23G31G25G32G26G10
 -19956733.52747 -15272264.83347  20999949.0864   20999948.7844   20999949.979
        46.5004         43.7004
 -17595887.79747 -13266473.95047  21658075.5374   21658074.0844   21658076.689
        45.8004         43.0004
 -11772328.58747  -9151892.38646  22109009.6424   22109012.1634   22109010.032
        43.7004         40.9004
  -3099706.08346  -2177834.06445  23830140.4414   23830139.9874   23830141.776
        38.2004         35.9004
 -12692940.59346  -9642752.69046  22899815.2554   22899816.3234   22899814.691
        41.3004         38.6004
  -1951875.32946  -1508931.23345  25319066.9494   25319066.0634   25319067.814
        36.4004         34.6004
 -24866855.10548 -19364295.49047  20075848.1794   20075846.4634   20075847.937
        50.2004         47.2004
  -5246405.44046  -4078224.66446  23276218.2464   23276219.2364   23276217.887
        39.4004         36.9004
 -11564526.41747  -8996107.61146  22231394.5024   22231395.2244   22231394.153
        44.6004         41.8004
  -2629445.35746  -2036441.01746  24078025.0154   24078028.8284   24078024.516
        38.5004         36.0004
  -7157932.60746  -5554340.47246  23584726.6604   23584728.8294   23584725.936
        39.4004         36.7004
 16 11 15  0 17 30.0000000  0 11G14G22G01G11G03G23G31G25G32G26G10
 -19929266.04247 -15250861.58647  21005176.9294   21005175.5194   21005176.904
        46.5004         43.7004
 -17665213.90147 -13320494.27447  21644883.6134   21644881.1244   21644884.205
        45.8004         42.8004
 -11750510.02847  -9134890.90946  22113162.9344   22113164.0364   22113162.244
        43.9004         41.2004
  -3029611.66646  -2123215.05745  23843479.1944   23843478.6354   23843479.543
        38.0004         35.7004
 -12784097.05646  -9713783.66746  22882469.6814   22882470.5584   22882468.819
        41.3004         38.6004
  -2029529.37046  -1569440.82045  25304290.9374   25304288.6434   25304290.344
        36.8004         34.8004
 -24861058.51948 -19359778.64847  20076951.3674   20076949.3744   20076950.935
        50.2004         47.2004
  -5231470.10846  -4066586.72546  23279060.2514   23279062.5784   23279060.900
        39.4004         37.1004
 -11501564.24547  -8947046.16546  22243375.5734   22243376.7594   22243375.526
        44.6004         41.8004
  -2729301.71846  -2114251.07345  24059021.8884   24059026.5564   24059022.329
        38.2004         35.9004
  -7060256.02446  -5478228.87346  23603313.9544   23603317.5364   23603313.360
        39.2004         36.7004
 16 11 15  0 18  0.0000000  0 11G14G22G01G11G03G23G31G25G32G26G10
 -19901611.44447 -15229312.53447  21010438.9824   21010438.3084   21010439.472
        46.5004         43.5004
 -17734257.32047 -13374294.32147  21631744.4524   21631742.3574   21631745.547
        45.6004         42.6004
 -11728128.95247  -9117451.09946  22117421.7404   22117423.2264   22117420.923
        43.9004         41.2004
  -2959244.88046  -2068383.78045  23856869.5014   23856867.8744   23856869.794
        38.0004         35.7004
 -12875086.63646  -9784684.60346  22865154.1194   22865155.5314   22865153.569
        41.1004         38.5004
  -2107170.52246  -1629940.32845  25289515.6764   25289513.8024   25289515.497
        37.0004         35.0004
 -24854702.52948 -19354825.90647  20078160.8884   20078159.0594   20078160.676
        50.2004         47.2004
  -5215935.83046  -4054482.06946  23282016.4984   23282019.3894   23282016.404
        39.6004         37.1004
 -11438470.64347  -8897882.29546  22255381.9634   22255383.3534   22255381.770
        44.4004         41.4004
  -2829104.74746  -2192019.58245  24040030.1784   24040033.7584   24040030.452
        38.2004         35.7004
  -6962368.11546  -5401952.61446  23621940.6254   23621943.0044   23621941.125
        39.0004         36.4004
 16 11 15  0 18 30.0000000  0 11G14G22G01G11G03G23G31G25G32G26G10
 -19873769.68347 -15207617.64447  21015737.2904   21015736.2734   21015737.470
        46.5004         43.5004
 -17803015.68547 -13427872.24947  21618660.3354   21618658.0144   21618661.386
        45.6004         42.8004
 -11705186.58947  -9099573.93646  22121786.9224   22121789.2634   22121786.598
        44.1004         41.2004
  -2888609.06346  -2013342.90945  23870311.0224   23870311.5834   23870311.870
        37.8004         35.5004
 -12965907.10446  -9855453.75846  22847872.2074   22847872.8574   22847871.483
        41.1004         38.5004
  -2184798.91746  -1690429.89845  25274742.9684   25274742.2434   25274744.239
        37.3004         35.2004
 -24847788.26548 -19349438.15347  20079476.7734   20079474.5504   20079476.521
        50.2004         47.2004
  -5199802.75046  -4041910.82346  23285087.1624   23285087.6834   23285087.128
        39.6004         37.1004
 -11375245.93947  -8848616.28946  22267413.4274   22267414.3894   22267412.972
        44.4004         41.4004
  -2928851.49246  -2269744.19945  24021049.2024   24021053.0634   24021048.957
        37.8004         35.5004
  -6864270.26346  -5325512.74346  23640608.3404   23640611.9834   23640608.784
        38.7004         36.6004
 16 11 15  0 19  0.0000000  0 11G14G22G01G11G03G23G31G25G32G26G10
 -19845741.55347 -15185777.53647  21021071.0824   21021069.5254   21021071.184
        46.5004         43.7004
 -17871487.28247 -13481226.71847  21605631.1494   21605628.8234   21605631.760
        45.8004         42.8004
 -11681684.27047  -9081260.44246  22126259.5354   22126261.2044   22126258.844
        43.9004         41.1004
  -2817707.18846  -1958094.68645  23883804.8034   23883803.2494   23883803.498
        37.6004         35.3004
 -13056556.32346  -9926089.48146  22830621.4204   22830622.8874   22830620.746
        41.1004         38.3004
  -2262414.68446  -1750909.63745  25259974.0664   25259970.6694   25259974.469
        37.0004         34.8004
 -24840316.67348 -19343616.11647  20080898.5634   20080896.3124   20080898.445
        50.2004         47.2004
  -5183070.99246  -4028873.06846  23288269.9754   23288271.5604   23288270.657
        39.6004         37.1004
 -11311890.52747  -8799248.43146  22279469.7054   22279470.1004   22279469.056
        44.2004         41.2004
  -3028538.89946  -2347422.57445  24002079.1694   24002083.1224   24002078.847
        37.6004         35.5004
  -6765963.94946  -5248910.45946  23659316.9534   23659318.1534   23659315.530
        38.5004         36.2004
 16 11 15  0 19 30.0000000  0 11G14G22G01G11G03G23G31G25G32G26G10
 -19817527.57147 -15163792.59747  21026439.5604   21026438.5834   21026440.135
        46.5004         43.7004
 -17939669.58447 -13534355.76447  21592656.1974   21592653.7514   21592656.940
        45.8004         42.8004
 -11657623.29447  -9062511.62346  22130837.8464   22130839.6624   22130837.445
        43.9004         41.1004
  -2746542.17546  -1902641.44745  23897346.0014   23897345.5644   23897345.554
        37.5004         35.2004
 -13147032.04946  -9996590.00546  22813404.1994   22813405.7754   22813403.984
        40.9004         38.3004
  -2340017.89146  -1811379.55745  25245208.3334   25245203.5404   25245207.122
        36.6004         34.5004
 -24832288.98048 -19337360.75447  20082426.3254   20082424.1314   20082426.036
        50.2004         47.2004
  -5165740.76746  -4015368.97946  23291568.5644   23291570.2134   23291568.379
        39.6004         37.1004
 -11248404.79447  -8749779.01646  22291550.5134   22291551.1954   22291549.882
        44.1004         41.2004
  -3128163.95446  -2425052.39945  23983120.8684   23983124.5134   23983121.196
        37.6004         35.7004
  -6667450.63446  -5172146.85446  23678060.9944   23678064.8734   23678061.252
        38.5004         36.2004
 16 11 15  0 20  0.0000000  0 11G14G22G01G11G03G23G31G25G32G26G10
 -19789127.90347 -15141662.97547  21031844.0354   21031842.8914   21031844.377
        46.5004         43.5004
 -18007560.75647 -13587257.95847  21579737.1554   21579734.1404   21579737.911
        45.8004         43.0004
 -11633004.97547  -9043328.52246  22135522.3324   22135524.9264   22135522.203
        43.7004         40.9004
  -2675117.17946  -1846985.61345  23910938.7404   23910937.8614   23910937.856
        37.3004         35.0004
 -13237332.08946 -10066953.64546  22796220.6124   22796222.6484   22796219.555
        40.9004         38.3004
  -2417608.17645  -1871839.44445  25230440.7684   25230439.0144   25230441.498
        35.9004         33.8004
 -24823706.26348 -19330672.90747  20084059.2304   20084057.3294   20084059.083
        50.2004         47.2004
  -5147812.30846  -4001398.73246  23294979.6394   23294982.3204   23294980.335
        39.6004         36.9004
 -11184789.07647  -8700208.31446  22303656.1224   22303657.3344   22303655.633
        44.1004         41.2004
  -3227723.68946  -2502631.30645  23964175.2434   23964178.4364   23964175.683
        37.8004         35.9004
  -6568731.73846  -5095223.07346  23696847.6544   23696850.4124   23696847.344
        38.7004         36.4004
 16 11 15  0 20 30.0000000  0 11G14G22G01G11G03G23G31G25G32G26G10
 -19760542.95247 -15119388.97347  21037283.3244   21037282.4114   21037283.976
        46.5004         43.5004
 -18075158.40847 -13639931.42347  21566873.8194   21566871.3984   21566874.603
        46.0004         43.2004
 -11607830.68447  -9023712.18746  22140313.5274   22140315.4044   22140312.722
        43.7004         40.7004
  -2603435.19746  -1791129.54045  23924577.5164   23924577.8164   23924578.349
        37.1004         34.8004
 -13327454.21846 -10137178.65846  22779070.7394   22779072.9184   22779070.325
        41.1004         38.5004
  -2495185.77645  -1932289.44245  25215677.9564   25215676.2584   25215678.263
        35.2004         33.4004
 -24814569.75648 -19323553.53047  20085797.7494   20085795.8164   20085797.696
        50.2004         47.2004
  -5129285.85646  -3986962.52446  23298505.1674   23298506.6164   23298505.733
        39.4004         36.7004
 -11121043.78847  -8650536.65446  22315786.3364   22315787.7244   22315786.017
        44.1004         41.2004
  -3327215.04046  -2580156.96346  23945242.7694   23945245.8474   23945242.748
        38.3004         36.2004
  -6469808.75746  -5018140.24446  23715671.8894   23715674.5054   23715671.865
        38.7004         36.4004
 16 11 15  0 21  0.0000000  0 11G14G22G01G11G03G23G31G25G32G26G10
 -19731773.26447 -15096971.03147  21042758.3684   21042757.1994   21042758.539
        46.5004         43.5004
 -18142460.55047 -13692374.63747  21554066.5024   21554064.6214   21554067.341
        46.0004         43.2004
 -11582101.81247  -9003663.72346  22145209.0124   22145210.9754   22145208.839
        43.6004         40.7004
  -2531499.33146  -1735075.63045  23938267.3424   23938266.7344   23938266.691
        37.1004         35.2004
 -13417396.22246 -10207263.30546  22761955.4964   22761957.4114   22761954.818
        41.1004         38.6004
  -2572750.93345  -1992729.73245  25200919.3054   25200916.9444   25200918.581
        34.3004         32.7004
 -24804880.50148 -19316003.44547  20087641.6864   20087639.5264   20087641.447
        50.2004         47.2004
  -5110161.65546  -3972060.53446  23302145.7904   23302146.1244   23302144.359
        39.0004         36.7004
 -11057169.27247  -8600764.29346  22327941.5634   22327942.2574   22327940.743
        44.1004         41.1004
  -3426635.00346  -2657627.01246  23926324.4434   23926327.4274   23926323.824
        38.9004         36.6004
  -6370683.17646  -4940899.56946  23734534.7724   23734537.2274   23734535.491
        38.9004         36.6004
 16 11 15  0 21 30.0000000  0 11G14G22G01G11G03G23G31G25G32G26G10
 -19702819.19547 -15074409.40447  21048267.6484   21048266.9114   21048268.153
        46.5004         43.3004
 -18209465.05547 -13744585.92247  21541315.6914   21541313.7224   21541316.820
